[
  {
    "Name": "KAAK 98.9FM",
    "Latitude": 47.5397,
    "Longitude": -111.2858,
    "Radius": 40,
    "Type": "Station",
    "Info": "<b>Genre:</b> Hot AC • <br><b>Station Rank:</b>  #4T Cascade County • <br><b>Buy Region:</b> REG 2<br>",
    "Tombras Reg": "REG 2",
    "Coverage Map": "https://radio-locator.com/pats/KAAK_FM_LU.gif",
    "BUY SUMMARY FOLDER": "https://drive.google.com/drive/u/0/folders/1rhIm5d2x3MxVJrVzlcuE23LBz3oJJYqY"
  },
  {
    "Name": "KABX 97.5FM",
    "Latitude": 37.4456,
    "Longitude": -120.1436,
    "Radius": 40,
    "Type": "Station",
    "Info": "<b>Genre:</b> Adult Contemp • <br><b>Station Rank:</b>  #1t • <br><b>Buy Region:</b> REG 3<br>",
    "Tombras Reg": "REG 3",
    "Coverage Map": "https://radio-locator.com/pats/KABX_FM_LU.gif",
    "BUY SUMMARY FOLDER": "https://drive.google.com/drive/u/0/folders/1rl0md7_m5fjLpMnp7cdYZ-H4GBu1Sai_"
  },
  {
    "Name": "KADQ 98.3FM",
    "Latitude": 41.3528,
    "Longitude": -110.9094,
    "Radius": 40,
    "Type": "Station",
    "Info": "<b>Genre:</b> CR • <br><b>Station Rank:</b>  #5 Uinta County WY • <br><b>Buy Region:</b> REG 4<br>",
    "Tombras Reg": "REG 4",
    "Coverage Map": "https://radio-locator.com/pats/KADQ_FM_LU.gif",
    "BUY SUMMARY FOLDER": "https://drive.google.com/drive/u/0/folders/1U_VBuZcO14Syvs-xZp3S_YXSRq8B8LyW"
  },
  {
    "Name": "KAFE 104.1FM",
    "Latitude": 48.6803,
    "Longitude": -122.8419,
    "Radius": 40,
    "Type": "Station",
    "Info": "<b>Genre:</b> AC • <br><b>Station Rank:</b>  #1 Whatcom County • <br><b>Buy Region:</b> REG 2<br>",
    "Tombras Reg": "REG 2",
    "Coverage Map": "https://radio-locator.com/pats/KAFE_FM_LU.gif",
    "BUY SUMMARY FOLDER": "https://drive.google.com/drive/u/0/folders/1rhIm5d2x3MxVJrVzlcuE23LBz3oJJYqY"
  },
  {
    "Name": "KAJO 1270AM",
    "Latitude": 42.439,
    "Longitude": -123.327,
    "Radius": 75,
    "Type": "Station",
    "Info": "<b>Genre:</b> AC • <br><b>Station Rank:</b>  #1 Josephine County • <br><b>Buy Region:</b> REG 1<br>",
    "Tombras Reg": "REG 1",
    "Coverage Map": "https://radio-locator.com/pats/KAJO_AM_LD.gif",
    "BUY SUMMARY FOLDER": "https://drive.google.com/drive/u/0/folders/1nMkE1tn9_cG4msZr6eidoX5_wMJU52Vc"
  },
  {
    "Name": "KALC 105.9FM",
    "Latitude": 39.7328,
    "Longitude": -105.2361,
    "Radius": 40,
    "Type": "Station",
    "Info": "<b>Genre:</b> Modern Adult Contemporary • <br><b>Station Rank:</b>  #1 • <br><b>Buy Region:</b> REG 4<br>",
    "Tombras Reg": "REG 4",
    "Coverage Map": "https://radio-locator.com/pats/KALC_FM_LU.gif",
    "BUY SUMMARY FOLDER": "https://drive.google.com/drive/u/0/folders/1U_VBuZcO14Syvs-xZp3S_YXSRq8B8LyW"
  },
  {
    "Name": "KALF 95.7FM",
    "Latitude": 39.9171,
    "Longitude": -122.6706,
    "Radius": 40,
    "Type": "Station",
    "Info": "<b>Genre:</b> New Country • <br><b>Station Rank:</b>  9t • <br><b>Buy Region:</b> REG 1<br>",
    "Tombras Reg": "REG 1",
    "Coverage Map": "https://radio-locator.com/pats/KALF_FM_LU.gif",
    "BUY SUMMARY FOLDER": "https://drive.google.com/drive/u/0/folders/1nMkE1tn9_cG4msZr6eidoX5_wMJU52Vc"
  },
  {
    "Name": "KARL 105.1FM",
    "Latitude": 44.3256,
    "Longitude": -95.8722,
    "Radius": 40,
    "Type": "Station",
    "Info": "<b>Genre:</b> Country • <br><b>Station Rank:</b>  #2 Lyon County • <br><b>Buy Region:</b> REG 5<br>",
    "Tombras Reg": "REG 5",
    "Coverage Map": "https://radio-locator.com/pats/KARL_FM_LU.gif",
    "BUY SUMMARY FOLDER": "https://drive.google.com/drive/u/0/folders/1NulZObGfMQxt4V-N1ynOpSehlQxg8yWb"
  },
  {
    "Name": "KARP 106.9FM",
    "Latitude": 45.04524,
    "Longitude": -94.5617329,
    "Radius": 40,
    "Type": "Station",
    "Info": "<b>Genre:</b> Country • <br><b>Station Rank:</b>  #2 McLeod County • <br><b>Buy Region:</b> REG 5<br>",
    "Tombras Reg": "REG 5",
    "Coverage Map": "https://radio-locator.com/pats/KARP_FM_LU.gif",
    "BUY SUMMARY FOLDER": "https://drive.google.com/drive/u/0/folders/1NulZObGfMQxt4V-N1ynOpSehlQxg8yWb"
  },
  {
    "Name": "KARY 100.9FM",
    "Latitude": 46.4864,
    "Longitude": -120.0025,
    "Radius": 40,
    "Type": "Station",
    "Info": "<b>Genre:</b> Classic Hits • <br><b>Station Rank:</b>  #1 Yakima County • <br><b>Buy Region:</b> REG 2<br>",
    "Tombras Reg": "REG 2",
    "Coverage Map": "https://radio-locator.com/pats/KARY_FM_LU.gif",
    "BUY SUMMARY FOLDER": "https://drive.google.com/drive/u/0/folders/1rhIm5d2x3MxVJrVzlcuE23LBz3oJJYqY"
  },
  {
    "Name": "KARZ 99.7FM",
    "Latitude": 44.282468,
    "Longitude": -96.3181709,
    "Radius": 40,
    "Type": "Station",
    "Info": "<b>Genre:</b> Classic Hits • <br><b>Station Rank:</b>  #1 Lyon County • <br><b>Buy Region:</b> REG 5<br>",
    "Tombras Reg": "REG 5",
    "Coverage Map": "https://radio-locator.com/pats/KARZ_FM_LU.gif",
    "BUY SUMMARY FOLDER": "https://drive.google.com/drive/u/0/folders/1NulZObGfMQxt4V-N1ynOpSehlQxg8yWb"
  },
  {
    "Name": "KASS 106.9FM",
    "Latitude": 42.7395,
    "Longitude": -106.3052,
    "Radius": 40,
    "Type": "Station",
    "Info": "<b>Genre:</b> Classic Rock • <br><b>Station Rank:</b>  #4 Natrona County WY • <br><b>Buy Region:</b> REG 4<br>",
    "Tombras Reg": "REG 4",
    "Coverage Map": "https://radio-locator.com/pats/KASS_FM_LU.gif",
    "BUY SUMMARY FOLDER": "https://drive.google.com/drive/u/0/folders/1U_VBuZcO14Syvs-xZp3S_YXSRq8B8LyW"
  },
  {
    "Name": "KATC 95.1FM",
    "Latitude": 38.7447,
    "Longitude": -104.8628,
    "Radius": 40,
    "Type": "Station",
    "Info": "<b>Genre:</b> Country • <br><b>Station Rank:</b>  #8 • <br><b>Buy Region:</b> REG 4<br>",
    "Tombras Reg": "REG 4",
    "Coverage Map": "https://radio-locator.com/pats/KATC_FM_LU.gif",
    "BUY SUMMARY FOLDER": "https://drive.google.com/drive/u/0/folders/1U_VBuZcO14Syvs-xZp3S_YXSRq8B8LyW"
  },
  {
    "Name": "KATM 103.3FM",
    "Latitude": 37.575,
    "Longitude": -121.3547,
    "Radius": 40,
    "Type": "Station",
    "Info": "<b>Genre:</b> Country • <br><b>Station Rank:</b>  #1 • <br><b>Buy Region:</b> REG 3<br>",
    "Tombras Reg": "REG 3",
    "Coverage Map": "https://radio-locator.com/pats/KATM_FM_LU.gif",
    "BUY SUMMARY FOLDER": "https://drive.google.com/drive/u/0/folders/1rl0md7_m5fjLpMnp7cdYZ-H4GBu1Sai_"
  },
  {
    "Name": "KATR 98.3FM",
    "Latitude": 40.420265,
    "Longitude": -102.9725069,
    "Radius": 40,
    "Type": "Station",
    "Info": "<b>Genre:</b> Country • <br><b>Station Rank:</b>  #1 • <br><b>Buy Region:</b> REG 4<br>",
    "Tombras Reg": "REG 4",
    "Coverage Map": "https://radio-locator.com/pats/KATR_FM_LU.gif",
    "BUY SUMMARY FOLDER": "https://drive.google.com/drive/u/0/folders/1U_VBuZcO14Syvs-xZp3S_YXSRq8B8LyW"
  },
  {
    "Name": "KAUS 1480AM",
    "Latitude": 43.622185,
    "Longitude": -92.9933239,
    "Radius": 75,
    "Type": "Station",
    "Info": "<b>Genre:</b> News Talk • <br><b>Station Rank:</b>  #2 Mower County • <br><b>Buy Region:</b> REG 5<br>",
    "Tombras Reg": "REG 5",
    "Coverage Map": "https://radio-locator.com/pats/KAUS_AM_LD.gif",
    "BUY SUMMARY FOLDER": "https://drive.google.com/drive/u/0/folders/1NulZObGfMQxt4V-N1ynOpSehlQxg8yWb"
  },
  {
    "Name": "KAUS 99.9FM",
    "Latitude": 43.628293,
    "Longitude": -93.1561089,
    "Radius": 40,
    "Type": "Station",
    "Info": "<b>Genre:</b> Country • <br><b>Station Rank:</b>  #1 Mower County • <br><b>Buy Region:</b> REG 5<br>",
    "Tombras Reg": "REG 5",
    "Coverage Map": "https://radio-locator.com/pats/KAUS_FM_LU.gif",
    "BUY SUMMARY FOLDER": "https://drive.google.com/drive/u/0/folders/1NulZObGfMQxt4V-N1ynOpSehlQxg8yWb"
  },
  {
    "Name": "KBCO 97.3FM",
    "Latitude": 39.9133,
    "Longitude": -105.2928,
    "Radius": 40,
    "Type": "Station",
    "Info": "<b>Genre:</b> Album Adult Alternative • <br><b>Station Rank:</b>  #6 Tied • <br><b>Buy Region:</b> REG 4<br>",
    "Tombras Reg": "REG 4",
    "Coverage Map": "https://radio-locator.com/pats/KBCO_FM_LU.gif",
    "BUY SUMMARY FOLDER": "https://drive.google.com/drive/u/0/folders/1U_VBuZcO14Syvs-xZp3S_YXSRq8B8LyW"
  },
  {
    "Name": "KBEB 92.5FM",
    "Latitude": 38.7072,
    "Longitude": -121.4769,
    "Radius": 40,
    "Type": "Station",
    "Info": "<b>Genre:</b> Soft AC • <br><b>Station Rank:</b>  #7 • <br><b>Buy Region:</b> REG 3<br>",
    "Tombras Reg": "REG 3",
    "Coverage Map": "https://radio-locator.com/pats/KBEB_FM_LU.gif",
    "BUY SUMMARY FOLDER": "https://drive.google.com/drive/u/0/folders/1rl0md7_m5fjLpMnp7cdYZ-H4GBu1Sai_"
  },
  {
    "Name": "KBEE 98.7FM",
    "Latitude": 40.6594,
    "Longitude": -112.2014,
    "Radius": 40,
    "Type": "Station",
    "Info": "<b>Genre:</b> AC • <br><b>Station Rank:</b>  #15 Tie • <br><b>Buy Region:</b> REG 4<br>",
    "Tombras Reg": "REG 4",
    "Coverage Map": "https://radio-locator.com/pats/KBEE_FM_LU.gif",
    "BUY SUMMARY FOLDER": "https://drive.google.com/drive/u/0/folders/1U_VBuZcO14Syvs-xZp3S_YXSRq8B8LyW"
  },
  {
    "Name": "KBER 101.1FM",
    "Latitude": 40.6594,
    "Longitude": -112.2014,
    "Radius": 40,
    "Type": "Station",
    "Info": "<b>Genre:</b> Classic Rock • <br><b>Station Rank:</b>  #8 Tie • <br><b>Buy Region:</b> REG 4<br>",
    "Tombras Reg": "REG 4",
    "Coverage Map": "https://radio-locator.com/pats/KBER_FM_LU.gif",
    "BUY SUMMARY FOLDER": "https://drive.google.com/drive/u/0/folders/1U_VBuZcO14Syvs-xZp3S_YXSRq8B8LyW"
  },
  {
    "Name": "KBFF 95.5FM",
    "Latitude": 45.5231,
    "Longitude": -122.6765,
    "Radius": 40,
    "Type": "Station",
    "Info": "<b>Genre:</b> Pop CHR • <br><b>Station Rank:</b>  #10t • <br><b>Buy Region:</b> REG 1<br>",
    "Tombras Reg": "REG 1",
    "Coverage Map": "https://radio-locator.com/pats/KBFF_FM_LU.gif",
    "BUY SUMMARY FOLDER": "https://drive.google.com/drive/u/0/folders/1nMkE1tn9_cG4msZr6eidoX5_wMJU52Vc"
  },
  {
    "Name": "KBKL 107.9FM",
    "Latitude": 39.0639,
    "Longitude": -108.55,
    "Radius": 40,
    "Type": "Station",
    "Info": "<b>Genre:</b> Classic Hits • <br><b>Station Rank:</b>  #1 Delta County • <br><b>Buy Region:</b> REG 4<br>",
    "Tombras Reg": "REG 4",
    "Coverage Map": "https://radio-locator.com/pats/KBKL_FM_LU.gif",
    "BUY SUMMARY FOLDER": "https://drive.google.com/drive/u/0/folders/1U_VBuZcO14Syvs-xZp3S_YXSRq8B8LyW"
  },
  {
    "Name": "KBKS 106.1FM",
    "Latitude": 47.5047,
    "Longitude": -121.9689,
    "Radius": 40,
    "Type": "Station",
    "Info": "<b>Genre:</b> CHR • <br><b>Station Rank:</b>  #6T • <br><b>Buy Region:</b> REG 2<br>",
    "Tombras Reg": "REG 2",
    "Coverage Map": "https://radio-locator.com/pats/KBKS_FM_LU.gif",
    "BUY SUMMARY FOLDER": "https://drive.google.com/drive/u/0/folders/1rhIm5d2x3MxVJrVzlcuE23LBz3oJJYqY"
  },
  {
    "Name": "KBLQ 92.9FM",
    "Latitude": 41.8697,
    "Longitude": -111.8052,
    "Radius": 40,
    "Type": "Station",
    "Info": "<b>Genre:</b> AC • <br><b>Station Rank:</b>  #2 Cache County UT • <br><b>Buy Region:</b> REG 4<br>",
    "Tombras Reg": "REG 4",
    "Coverage Map": "https://radio-locator.com/pats/KBLQ_FM_LU.gif",
    "BUY SUMMARY FOLDER": "https://drive.google.com/drive/u/0/folders/1U_VBuZcO14Syvs-xZp3S_YXSRq8B8LyW"
  },
  {
    "Name": "KBOS 94.9FM",
    "Latitude": 36.6356,
    "Longitude": -118.9431,
    "Radius": 40,
    "Type": "Station",
    "Info": "<b>Genre:</b> Rhythmic CHR • <br><b>Station Rank:</b>  #4 Visalia County • <br><b>Buy Region:</b> REG 3<br>",
    "Tombras Reg": "REG 3",
    "Coverage Map": "https://radio-locator.com/pats/KBOS_FM_LU.gif",
    "BUY SUMMARY FOLDER": "https://drive.google.com/drive/u/0/folders/1rl0md7_m5fjLpMnp7cdYZ-H4GBu1Sai_"
  },
  {
    "Name": "KBOW 550AM & 101.5FM",
    "Latitude": 45.975,
    "Longitude": -112.5717,
    "Radius": 75,
    "Type": "Station",
    "Info": "<b>Genre:</b> Country • <br><b>Station Rank:</b>  #2 Silver Bow County • <br><b>Buy Region:</b> REG 2<br>",
    "Tombras Reg": "REG 2",
    "Coverage Map": "https://radio-locator.com/pats/KBOW_AM_LD.gif",
    "BUY SUMMARY FOLDER": "https://drive.google.com/drive/u/0/folders/1rhIm5d2x3MxVJrVzlcuE23LBz3oJJYqY"
  },
  {
    "Name": "KBOY 95.7FM",
    "Latitude": 42.439,
    "Longitude": -123.327,
    "Radius": 40,
    "Type": "Station",
    "Info": "<b>Genre:</b> Cl Rock • <br><b>Station Rank:</b>  #3 Jackson County • <br><b>Buy Region:</b> REG 1<br>",
    "Tombras Reg": "REG 1",
    "Coverage Map": "https://radio-locator.com/pats/KBOY_FM_LU.gif",
    "BUY SUMMARY FOLDER": "https://drive.google.com/drive/u/0/folders/1nMkE1tn9_cG4msZr6eidoX5_wMJU52Vc"
  },
  {
    "Name": "KBPI 107.9FM",
    "Latitude": 39.7263,
    "Longitude": -105.2347,
    "Radius": 40,
    "Type": "Station",
    "Info": "<b>Genre:</b> Active Rock • <br><b>Station Rank:</b>  #6 Tied • <br><b>Buy Region:</b> REG 4<br>",
    "Tombras Reg": "REG 4",
    "Coverage Map": "https://radio-locator.com/pats/KBPI_FM_LU.gif",
    "BUY SUMMARY FOLDER": "https://drive.google.com/drive/u/0/folders/1U_VBuZcO14Syvs-xZp3S_YXSRq8B8LyW"
  },
  {
    "Name": "KBQB 92.7FM",
    "Latitude": 39.7281,
    "Longitude": -121.8372,
    "Radius": 40,
    "Type": "Station",
    "Info": "<b>Genre:</b> Adult Hits • <br><b>Station Rank:</b>  6t • <br><b>Buy Region:</b> REG 1<br>",
    "Tombras Reg": "REG 1",
    "Coverage Map": "https://radio-locator.com/pats/KBQB_FM_LU.gif",
    "BUY SUMMARY FOLDER": "https://drive.google.com/drive/u/0/folders/1nMkE1tn9_cG4msZr6eidoX5_wMJU52Vc"
  },
  {
    "Name": "KBUL 98.1FM",
    "Latitude": 39.2589,
    "Longitude": -119.7028,
    "Radius": 40,
    "Type": "Station",
    "Info": "<b>Genre:</b> Country • <br><b>Station Rank:</b>  #5 • <br><b>Buy Region:</b> REG 3<br>",
    "Tombras Reg": "REG 3",
    "Coverage Map": "https://radio-locator.com/pats/KBUL_FM_LU.gif",
    "BUY SUMMARY FOLDER": "https://drive.google.com/drive/u/0/folders/1rl0md7_m5fjLpMnp7cdYZ-H4GBu1Sai_"
  },
  {
    "Name": "KBVB 95.1FM",
    "Latitude": 46.81913,
    "Longitude": -96.7684909,
    "Radius": 40,
    "Type": "Station",
    "Info": "<b>Genre:</b> New Country • <br><b>Station Rank:</b>  #1 • <br><b>Buy Region:</b> REG 5<br>",
    "Tombras Reg": "REG 5",
    "Coverage Map": "https://radio-locator.com/pats/KBVB_FM_LU.gif",
    "BUY SUMMARY FOLDER": "https://drive.google.com/drive/u/0/folders/1NulZObGfMQxt4V-N1ynOpSehlQxg8yWb"
  },
  {
    "Name": "KBZM 104.7FM",
    "Latitude": 45.2781,
    "Longitude": -111.45,
    "Radius": 40,
    "Type": "Station",
    "Info": "<b>Genre:</b> Classic Rock • <br><b>Station Rank:</b>  #3 Gallatin County • <br><b>Buy Region:</b> REG 2<br>",
    "Tombras Reg": "REG 2",
    "Coverage Map": "https://radio-locator.com/pats/KBZM_FM_LU.gif",
    "BUY SUMMARY FOLDER": "https://drive.google.com/drive/u/0/folders/1rhIm5d2x3MxVJrVzlcuE23LBz3oJJYqY"
  },
  {
    "Name": "KBZN 97.9FM",
    "Latitude": 40.6558,
    "Longitude": -112.2008,
    "Radius": 40,
    "Type": "Station",
    "Info": "<b>Genre:</b> Hot AC • <br><b>Station Rank:</b>  #7 • <br><b>Buy Region:</b> REG 4<br>",
    "Tombras Reg": "REG 4",
    "Coverage Map": "https://radio-locator.com/pats/KBZN_FM_LU.gif",
    "BUY SUMMARY FOLDER": "https://drive.google.com/drive/u/0/folders/1U_VBuZcO14Syvs-xZp3S_YXSRq8B8LyW"
  },
  {
    "Name": "KCAL 96.7FM",
    "Latitude": 34.1975,
    "Longitude": -117.2875,
    "Radius": 40,
    "Type": "Station",
    "Info": "<b>Genre:</b> Active Rock • <br><b>Station Rank:</b>  #17 • <br><b>Buy Region:</b> REG 3<br>",
    "Tombras Reg": "REG 3",
    "Coverage Map": "https://radio-locator.com/pats/KCAL_FM_LU.gif",
    "BUY SUMMARY FOLDER": "https://drive.google.com/drive/u/0/folders/1rl0md7_m5fjLpMnp7cdYZ-H4GBu1Sai_"
  },
  {
    "Name": "KCCR 104.5FM",
    "Latitude": 44.35056,
    "Longitude": -100.31889,
    "Radius": 40,
    "Type": "Station",
    "Info": "<b>Genre:</b> Rock • <br><b>Station Rank:</b>  #3 Hughes County • <br><b>Buy Region:</b> REG 5<br>",
    "Tombras Reg": "REG 5",
    "Coverage Map": "https://radio-locator.com/pats/KCCR_FM_LU.gif",
    "BUY SUMMARY FOLDER": "https://drive.google.com/drive/u/0/folders/1NulZObGfMQxt4V-N1ynOpSehlQxg8yWb"
  },
  {
    "Name": "KCCY 96.9FM",
    "Latitude": 38.7447,
    "Longitude": -104.8628,
    "Radius": 40,
    "Type": "Station",
    "Info": "<b>Genre:</b> Country • <br><b>Station Rank:</b>  #6 • <br><b>Buy Region:</b> REG 4<br>",
    "Tombras Reg": "REG 4",
    "Coverage Map": "https://radio-locator.com/pats/KCCY_FM_LU.gif",
    "BUY SUMMARY FOLDER": "https://drive.google.com/drive/u/0/folders/1U_VBuZcO14Syvs-xZp3S_YXSRq8B8LyW"
  },
  {
    "Name": "KCEZ 102.1FM",
    "Latitude": 40.0242,
    "Longitude": -122.1,
    "Radius": 40,
    "Type": "Station",
    "Info": "<b>Genre:</b> Pop Contemporary Hit • <br><b>Station Rank:</b>  4t • <br><b>Buy Region:</b> REG 1<br>",
    "Tombras Reg": "REG 1",
    "Coverage Map": "https://radio-locator.com/pats/KCEZ_FM_LU.gif",
    "BUY SUMMARY FOLDER": "https://drive.google.com/drive/u/0/folders/1nMkE1tn9_cG4msZr6eidoX5_wMJU52Vc"
  },
  {
    "Name": "KCGY 95.1FM",
    "Latitude": 41.3057,
    "Longitude": -105.4518,
    "Radius": 40,
    "Type": "Station",
    "Info": "<b>Genre:</b> Country • <br><b>Station Rank:</b>  #4 Albany County WY • <br><b>Buy Region:</b> REG 4<br>",
    "Tombras Reg": "REG 4",
    "Coverage Map": "https://radio-locator.com/pats/KCGY_FM_LU.gif",
    "BUY SUMMARY FOLDER": "https://drive.google.com/drive/u/0/folders/1U_VBuZcO14Syvs-xZp3S_YXSRq8B8LyW"
  },
  {
    "Name": "KCMX 101.9FM",
    "Latitude": 42.439,
    "Longitude": -123.327,
    "Radius": 40,
    "Type": "Station",
    "Info": "<b>Genre:</b> Soft AC • <br><b>Station Rank:</b>  #1 Jackson County • <br><b>Buy Region:</b> REG 1<br>",
    "Tombras Reg": "REG 1",
    "Coverage Map": "https://radio-locator.com/pats/KCMX_FM_LU.gif",
    "BUY SUMMARY FOLDER": "https://drive.google.com/drive/u/0/folders/1nMkE1tn9_cG4msZr6eidoX5_wMJU52Vc"
  },
  {
    "Name": "KCSY 106.3FM",
    "Latitude": 48.318,
    "Longitude": -120.114,
    "Radius": 40,
    "Type": "Station",
    "Info": "<b>Genre:</b> Classic Hits • <br><b>Station Rank:</b>  #4 Chelan County • <br><b>Buy Region:</b> REG 2<br>",
    "Tombras Reg": "REG 2",
    "Coverage Map": "https://radio-locator.com/pats/KCSY_FM_LU.gif",
    "BUY SUMMARY FOLDER": "https://drive.google.com/drive/u/0/folders/1rhIm5d2x3MxVJrVzlcuE23LBz3oJJYqY"
  },
  {
    "Name": "KCTR 102.9FM",
    "Latitude": 45.7661,
    "Longitude": -108.4553,
    "Radius": 40,
    "Type": "Station",
    "Info": "<b>Genre:</b> Country • <br><b>Station Rank:</b>  #1 Yellowstone County • <br><b>Buy Region:</b> REG 2<br>",
    "Tombras Reg": "REG 2",
    "Coverage Map": "https://radio-locator.com/pats/KCTR_FM_LU.gif",
    "BUY SUMMARY FOLDER": "https://drive.google.com/drive/u/0/folders/1rhIm5d2x3MxVJrVzlcuE23LBz3oJJYqY"
  },
  {
    "Name": "KCVI 101.5FM",
    "Latitude": 43.19,
    "Longitude": -112.345,
    "Radius": 40,
    "Type": "Station",
    "Info": "<b>Genre:</b> Rock • <br><b>Station Rank:</b>  #5 Pocatello Bannock County • <br><b>Buy Region:</b> REG 4<br>",
    "Tombras Reg": "REG 4",
    "Coverage Map": "https://radio-locator.com/pats/KCVI_FM_LU.gif",
    "BUY SUMMARY FOLDER": "https://drive.google.com/drive/u/0/folders/1U_VBuZcO14Syvs-xZp3S_YXSRq8B8LyW"
  },
  {
    "Name": "KCVR 98.9FM",
    "Latitude": 37.6397,
    "Longitude": -121.0033,
    "Radius": 40,
    "Type": "Station",
    "Info": "<b>Genre:</b> Reg. Mex • <br><b>Station Rank:</b>  #5t • <br><b>Buy Region:</b> REG 3<br>",
    "Tombras Reg": "REG 3",
    "Coverage Map": "https://radio-locator.com/pats/KCVR_FM_LU.gif",
    "BUY SUMMARY FOLDER": "https://drive.google.com/drive/u/0/folders/1rl0md7_m5fjLpMnp7cdYZ-H4GBu1Sai_"
  },
  {
    "Name": "KDAG 96.9FM",
    "Latitude": 36.8087,
    "Longitude": -107.8887,
    "Radius": 40,
    "Type": "Station",
    "Info": "<b>Genre:</b> Classic Rock • <br><b>Station Rank:</b>  #2T • <br><b>Buy Region:</b> REG 5<br>",
    "Tombras Reg": "REG 5",
    "Coverage Map": "https://radio-locator.com/pats/KDAG_FM_LU.gif",
    "BUY SUMMARY FOLDER": "https://drive.google.com/drive/u/0/folders/1NulZObGfMQxt4V-N1ynOpSehlQxg8yWb"
  },
  {
    "Name": "KDAM 94.3FM",
    "Latitude": 42.73028,
    "Longitude": -97.40361,
    "Radius": 40,
    "Type": "Station",
    "Info": "<b>Genre:</b> Rock • <br><b>Station Rank:</b>  #1 • <br><b>Buy Region:</b> REG 5<br>",
    "Tombras Reg": "REG 5",
    "Coverage Map": "https://radio-locator.com/pats/KDAM_FM_LU.gif",
    "BUY SUMMARY FOLDER": "https://drive.google.com/drive/u/0/folders/1NulZObGfMQxt4V-N1ynOpSehlQxg8yWb"
  },
  {
    "Name": "KDBI 106.3FM",
    "Latitude": 43.617,
    "Longitude": -116.932,
    "Radius": 40,
    "Type": "Station",
    "Info": "<b>Genre:</b> Regional Mexican • <br><b>Station Rank:</b>  #1 Canyon County • <br><b>Buy Region:</b> REG 4<br>",
    "Tombras Reg": "REG 4",
    "Coverage Map": "https://radio-locator.com/pats/KDBI_FM_LU.gif",
    "BUY SUMMARY FOLDER": "https://drive.google.com/drive/u/0/folders/1U_VBuZcO14Syvs-xZp3S_YXSRq8B8LyW"
  },
  {
    "Name": "KDDV 101.5FM",
    "Latitude": 43.9928,
    "Longitude": -105.2525,
    "Radius": 40,
    "Type": "Station",
    "Info": "<b>Genre:</b> Classic Hits • <br><b>Station Rank:</b>  #3 Campbell County WY • <br><b>Buy Region:</b> REG 4<br>",
    "Tombras Reg": "REG 4",
    "Coverage Map": "https://radio-locator.com/pats/KDDV_FM_LU.gif",
    "BUY SUMMARY FOLDER": "https://drive.google.com/drive/u/0/folders/1U_VBuZcO14Syvs-xZp3S_YXSRq8B8LyW"
  },
  {
    "Name": "KDFO 98.5FM",
    "Latitude": 35.5147,
    "Longitude": -119.0614,
    "Radius": 40,
    "Type": "Station",
    "Info": "<b>Genre:</b> Country • <br><b>Station Rank:</b>  #5T • <br><b>Buy Region:</b> REG 3<br>",
    "Tombras Reg": "REG 3",
    "Coverage Map": "https://radio-locator.com/pats/KDFO_FM_LU.gif",
    "BUY SUMMARY FOLDER": "https://drive.google.com/drive/u/0/folders/1rl0md7_m5fjLpMnp7cdYZ-H4GBu1Sai_"
  },
  {
    "Name": "KDGO 1240AM & 98.3FM",
    "Latitude": 37.305,
    "Longitude": -107.8575,
    "Radius": 75,
    "Type": "Station",
    "Info": "<b>Genre:</b> News Talk • <br><b>Station Rank:</b>  #1 La Plata County • <br><b>Buy Region:</b> REG 5<br>",
    "Tombras Reg": "REG 5",
    "Coverage Map": "https://radio-locator.com/pats/KDGO_AM_LD.gif",
    "BUY SUMMARY FOLDER": "https://drive.google.com/drive/u/0/folders/1NulZObGfMQxt4V-N1ynOpSehlQxg8yWb"
  },
  {
    "Name": "KDIL 940AM & 94.3FM",
    "Latitude": 42.7272,
    "Longitude": -114.6269,
    "Radius": 75,
    "Type": "Station",
    "Info": "<b>Genre:</b> Latin Hits • <br><b>Station Rank:</b>  • <br><b>Buy Region:</b> REG 4<br>",
    "Tombras Reg": "REG 4",
    "Coverage Map": "https://radio-locator.com/pats/KDIL_AM_LD.gif",
    "BUY SUMMARY FOLDER": "https://drive.google.com/drive/u/0/folders/1U_VBuZcO14Syvs-xZp3S_YXSRq8B8LyW"
  },
  {
    "Name": "KDLO 96.9FM",
    "Latitude": 44.96583,
    "Longitude": -97.58972,
    "Radius": 40,
    "Type": "Station",
    "Info": "<b>Genre:</b> Classic Country • <br><b>Station Rank:</b>  #2 Codington County • <br><b>Buy Region:</b> REG 5<br>",
    "Tombras Reg": "REG 5",
    "Coverage Map": "https://radio-locator.com/pats/KDLO_FM_LU.gif",
    "BUY SUMMARY FOLDER": "https://drive.google.com/drive/u/0/folders/1NulZObGfMQxt4V-N1ynOpSehlQxg8yWb"
  },
  {
    "Name": "KDLY 97.5FM",
    "Latitude": 42.8208,
    "Longitude": -108.7655,
    "Radius": 40,
    "Type": "Station",
    "Info": "<b>Genre:</b> Country • <br><b>Station Rank:</b>  #2 Fremont County WY • <br><b>Buy Region:</b> REG 4<br>",
    "Tombras Reg": "REG 4",
    "Coverage Map": "https://radio-locator.com/pats/KDLY_FM_LU.gif",
    "BUY SUMMARY FOLDER": "https://drive.google.com/drive/u/0/folders/1U_VBuZcO14Syvs-xZp3S_YXSRq8B8LyW"
  },
  {
    "Name": "KDON 102.5FM",
    "Latitude": 36.7564,
    "Longitude": -121.5025,
    "Radius": 40,
    "Type": "Station",
    "Info": "<b>Genre:</b> Rhythmic CHR • <br><b>Station Rank:</b>  #1 • <br><b>Buy Region:</b> REG 3<br>",
    "Tombras Reg": "REG 3",
    "Coverage Map": "https://radio-locator.com/pats/KDON_FM_LU.gif",
    "BUY SUMMARY FOLDER": "https://drive.google.com/drive/u/0/folders/1rl0md7_m5fjLpMnp7cdYZ-H4GBu1Sai_"
  },
  {
    "Name": "KDOT 104.5FM",
    "Latitude": 39.3133,
    "Longitude": -119.8842,
    "Radius": 40,
    "Type": "Station",
    "Info": "<b>Genre:</b> Active Rock • <br><b>Station Rank:</b>  #2 • <br><b>Buy Region:</b> REG 3<br>",
    "Tombras Reg": "REG 3",
    "Coverage Map": "https://radio-locator.com/pats/KDOT_FM_LU.gif",
    "BUY SUMMARY FOLDER": "https://drive.google.com/drive/u/0/folders/1rl0md7_m5fjLpMnp7cdYZ-H4GBu1Sai_"
  },
  {
    "Name": "KDSR 101.1FM",
    "Latitude": 48.05861,
    "Longitude": -104.002,
    "Radius": 40,
    "Type": "Station",
    "Info": "<b>Genre:</b> Adult Hits • <br><b>Station Rank:</b>  #2 Williams County • <br><b>Buy Region:</b> REG 5<br>",
    "Tombras Reg": "REG 5",
    "Coverage Map": "https://radio-locator.com/pats/KDSR_FM_LU.gif",
    "BUY SUMMARY FOLDER": "https://drive.google.com/drive/u/0/folders/1NulZObGfMQxt4V-N1ynOpSehlQxg8yWb"
  },
  {
    "Name": "KDUK 104.7FM",
    "Latitude": 44.0521,
    "Longitude": -123.0868,
    "Radius": 40,
    "Type": "Station",
    "Info": "<b>Genre:</b> Pop CHR • <br><b>Station Rank:</b>  #4t • <br><b>Buy Region:</b> REG 1<br>",
    "Tombras Reg": "REG 1",
    "Coverage Map": "https://radio-locator.com/pats/KDUK_FM_LU.gif",
    "BUY SUMMARY FOLDER": "https://drive.google.com/drive/u/0/folders/1nMkE1tn9_cG4msZr6eidoX5_wMJU52Vc"
  },
  {
    "Name": "KDVL 102.5FM",
    "Latitude": 47.98778,
    "Longitude": -98.93333,
    "Radius": 40,
    "Type": "Station",
    "Info": "<b>Genre:</b> Classic Hits • <br><b>Station Rank:</b>  #2 Ramsey County • <br><b>Buy Region:</b> REG 5<br>",
    "Tombras Reg": "REG 5",
    "Coverage Map": "https://radio-locator.com/pats/KDVL_FM_LU.gif",
    "BUY SUMMARY FOLDER": "https://drive.google.com/drive/u/0/folders/1NulZObGfMQxt4V-N1ynOpSehlQxg8yWb"
  },
  {
    "Name": "KEBT 96.9FM",
    "Latitude": 35.3278,
    "Longitude": -119.717,
    "Radius": 40,
    "Type": "Station",
    "Info": "<b>Genre:</b> Reg. Mex • <br><b>Station Rank:</b>  #2 • <br><b>Buy Region:</b> REG 3<br>",
    "Tombras Reg": "REG 3",
    "Coverage Map": "https://radio-locator.com/pats/KEBT_FM_LU.gif",
    "BUY SUMMARY FOLDER": "https://drive.google.com/drive/u/0/folders/1rl0md7_m5fjLpMnp7cdYZ-H4GBu1Sai_"
  },
  {
    "Name": "KEGK 106.9FM",
    "Latitude": 46.546,
    "Longitude": "–96.6280",
    "Radius": 40,
    "Type": "Station",
    "Info": "<b>Genre:</b> Classic Hits • <br><b>Station Rank:</b>  #5 • <br><b>Buy Region:</b> REG 5<br>",
    "Tombras Reg": "REG 5",
    "Coverage Map": "https://radio-locator.com/pats/KEGK_FM_LU.gif",
    "BUY SUMMARY FOLDER": "https://drive.google.com/drive/u/0/folders/1NulZObGfMQxt4V-N1ynOpSehlQxg8yWb"
  },
  {
    "Name": "KEHK 102.3FM",
    "Latitude": 44.0521,
    "Longitude": -123.0868,
    "Radius": 40,
    "Type": "Station",
    "Info": "<b>Genre:</b> Hot AC • <br><b>Station Rank:</b>  #9t • <br><b>Buy Region:</b> REG 1<br>",
    "Tombras Reg": "REG 1",
    "Coverage Map": "https://radio-locator.com/pats/KEHK_FM_LU.gif",
    "BUY SUMMARY FOLDER": "https://drive.google.com/drive/u/0/folders/1nMkE1tn9_cG4msZr6eidoX5_wMJU52Vc"
  },
  {
    "Name": "KEKB 99.9FM",
    "Latitude": 39.0656,
    "Longitude": -108.7478,
    "Radius": 40,
    "Type": "Station",
    "Info": "<b>Genre:</b> Country • <br><b>Station Rank:</b>  #2 Delta County • <br><b>Buy Region:</b> REG 4<br>",
    "Tombras Reg": "REG 4",
    "Coverage Map": "https://radio-locator.com/pats/KEKB_FM_LU.gif",
    "BUY SUMMARY FOLDER": "https://drive.google.com/drive/u/0/folders/1U_VBuZcO14Syvs-xZp3S_YXSRq8B8LyW"
  },
  {
    "Name": "KELK 1240AM",
    "Latitude": 40.8395,
    "Longitude": -115.7429,
    "Radius": 75,
    "Type": "Station",
    "Info": "<b>Genre:</b> AC • <br><b>Station Rank:</b>  #3 Elko County NV • <br><b>Buy Region:</b> REG 4<br>",
    "Tombras Reg": "REG 4",
    "Coverage Map": "https://radio-locator.com/pats/KELK_AM_LD.gif",
    "BUY SUMMARY FOLDER": "https://drive.google.com/drive/u/0/folders/1U_VBuZcO14Syvs-xZp3S_YXSRq8B8LyW"
  },
  {
    "Name": "KESR 107.1FM",
    "Latitude": 40.5865,
    "Longitude": -122.3917,
    "Radius": 40,
    "Type": "Station",
    "Info": "<b>Genre:</b> Adult Hits • <br><b>Station Rank:</b>  #3t • <br><b>Buy Region:</b> REG 1<br>",
    "Tombras Reg": "REG 1",
    "Coverage Map": "https://radio-locator.com/pats/KESR_FM_LU.gif",
    "BUY SUMMARY FOLDER": "https://drive.google.com/drive/u/0/folders/1nMkE1tn9_cG4msZr6eidoX5_wMJU52Vc"
  },
  {
    "Name": "KEUG 105.5FM",
    "Latitude": 44.0521,
    "Longitude": -123.0868,
    "Radius": 40,
    "Type": "Station",
    "Info": "<b>Genre:</b> Adult Hits • <br><b>Station Rank:</b>  #3 • <br><b>Buy Region:</b> REG 1<br>",
    "Tombras Reg": "REG 1",
    "Coverage Map": "https://radio-locator.com/pats/KEUG_FM_LU.gif",
    "BUY SUMMARY FOLDER": "https://drive.google.com/drive/u/0/folders/1nMkE1tn9_cG4msZr6eidoX5_wMJU52Vc"
  },
  {
    "Name": "KEWB 94.7FM",
    "Latitude": 40.5865,
    "Longitude": -122.3917,
    "Radius": 40,
    "Type": "Station",
    "Info": "<b>Genre:</b> Pop Contemporary Hit • <br><b>Station Rank:</b>  #5t • <br><b>Buy Region:</b> REG 1<br>",
    "Tombras Reg": "REG 1",
    "Coverage Map": "https://radio-locator.com/pats/KEWB_FM_LU.gif",
    "BUY SUMMARY FOLDER": "https://drive.google.com/drive/u/0/folders/1nMkE1tn9_cG4msZr6eidoX5_wMJU52Vc"
  },
  {
    "Name": "KEYF 101.1FM",
    "Latitude": 47.5864,
    "Longitude": -117.2939,
    "Radius": 40,
    "Type": "Station",
    "Info": "<b>Genre:</b> Classic Hits • <br><b>Station Rank:</b>  #3 • <br><b>Buy Region:</b> REG 2<br>",
    "Tombras Reg": "REG 2",
    "Coverage Map": "https://radio-locator.com/pats/KEYF_FM_LU.gif",
    "BUY SUMMARY FOLDER": "https://drive.google.com/drive/u/0/folders/1rhIm5d2x3MxVJrVzlcuE23LBz3oJJYqY"
  },
  {
    "Name": "KEYZ 660AM",
    "Latitude": 48.2389,
    "Longitude": "–103.6503",
    "Radius": 75,
    "Type": "Station",
    "Info": "<b>Genre:</b> News/Talk • <br><b>Station Rank:</b>  #3 Williams County • <br><b>Buy Region:</b> REG 5<br>",
    "Tombras Reg": "REG 5",
    "Coverage Map": "https://radio-locator.com/pats/KEYZ_AM_LD.gif",
    "BUY SUMMARY FOLDER": "https://drive.google.com/drive/u/0/folders/1NulZObGfMQxt4V-N1ynOpSehlQxg8yWb"
  },
  {
    "Name": "KFBK 1530AM",
    "Latitude": 38.8483,
    "Longitude": -121.4839,
    "Radius": 75,
    "Type": "Station",
    "Info": "<b>Genre:</b> News Talk • <br><b>Station Rank:</b>  #2 • <br><b>Buy Region:</b> REG 3<br>",
    "Tombras Reg": "REG 3",
    "Coverage Map": "https://radio-locator.com/pats/KFBK_AM_LD.gif",
    "BUY SUMMARY FOLDER": "https://drive.google.com/drive/u/0/folders/1rl0md7_m5fjLpMnp7cdYZ-H4GBu1Sai_"
  },
  {
    "Name": "KFBT 103.7FM",
    "Latitude": 36.5533,
    "Longitude": -119.7536,
    "Radius": 40,
    "Type": "Station",
    "Info": "<b>Genre:</b> Rhythmic AC • <br><b>Station Rank:</b>  #16t • <br><b>Buy Region:</b> REG 3<br>",
    "Tombras Reg": "REG 3",
    "Coverage Map": "https://radio-locator.com/pats/KFBT_FM_LU.gif",
    "BUY SUMMARY FOLDER": "https://drive.google.com/drive/u/0/folders/1rl0md7_m5fjLpMnp7cdYZ-H4GBu1Sai_"
  },
  {
    "Name": "KFBW 105.9FM",
    "Latitude": 45.5231,
    "Longitude": -122.6765,
    "Radius": 40,
    "Type": "Station",
    "Info": "<b>Genre:</b> Cl Rock • <br><b>Station Rank:</b>  #8 • <br><b>Buy Region:</b> REG 1<br>",
    "Tombras Reg": "REG 1",
    "Coverage Map": "https://radio-locator.com/pats/KFBW_FM_LU.gif",
    "BUY SUMMARY FOLDER": "https://drive.google.com/drive/u/0/folders/1nMkE1tn9_cG4msZr6eidoX5_wMJU52Vc"
  },
  {
    "Name": "KFGO 790AM",
    "Latitude": 46.7181,
    "Longitude": "–96.8017",
    "Radius": 75,
    "Type": "Station",
    "Info": "<b>Genre:</b> News Talk Info • <br><b>Station Rank:</b>  #2T • <br><b>Buy Region:</b> REG 5<br>",
    "Tombras Reg": "REG 5",
    "Coverage Map": "https://radio-locator.com/pats/KFGO_AM_LD.gif",
    "BUY SUMMARY FOLDER": "https://drive.google.com/drive/u/0/folders/1NulZObGfMQxt4V-N1ynOpSehlQxg8yWb"
  },
  {
    "Name": "KFGY 92.9FM",
    "Latitude": 38.7625,
    "Longitude": -122.8411,
    "Radius": 40,
    "Type": "Station",
    "Info": "<b>Genre:</b> Country • <br><b>Station Rank:</b>  #2 Sonoma County • <br><b>Buy Region:</b> REG 1<br>",
    "Tombras Reg": "REG 1",
    "Coverage Map": "https://radio-locator.com/pats/KFGY_FM_LU.gif",
    "BUY SUMMARY FOLDER": "https://drive.google.com/drive/u/0/folders/1nMkE1tn9_cG4msZr6eidoX5_wMJU52Vc"
  },
  {
    "Name": "KFNL 104.3FM",
    "Latitude": 43.6397,
    "Longitude": "–92.6417",
    "Radius": 40,
    "Type": "Station",
    "Info": "<b>Genre:</b> Classic Hits • <br><b>Station Rank:</b>  #4 Mower County • <br><b>Buy Region:</b> REG 5<br>",
    "Tombras Reg": "REG 5",
    "Coverage Map": "https://radio-locator.com/pats/KFNL_FM_LU.gif",
    "BUY SUMMARY FOLDER": "https://drive.google.com/drive/u/0/folders/1NulZObGfMQxt4V-N1ynOpSehlQxg8yWb"
  },
  {
    "Name": "KFRG 95.1FM",
    "Latitude": 34.1975,
    "Longitude": -117.2875,
    "Radius": 40,
    "Type": "Station",
    "Info": "<b>Genre:</b> Country • <br><b>Station Rank:</b>  #10t • <br><b>Buy Region:</b> REG 3<br>",
    "Tombras Reg": "REG 3",
    "Coverage Map": "https://radio-locator.com/pats/KFRG_FM_LU.gif",
    "BUY SUMMARY FOLDER": "https://drive.google.com/drive/u/0/folders/1rl0md7_m5fjLpMnp7cdYZ-H4GBu1Sai_"
  },
  {
    "Name": "KFRZ 92.1FM",
    "Latitude": 41.4964,
    "Longitude": -109.3461,
    "Radius": 40,
    "Type": "Station",
    "Info": "<b>Genre:</b> Country • <br><b>Station Rank:</b>  #5 Sweetwater County WY • <br><b>Buy Region:</b> REG 4<br>",
    "Tombras Reg": "REG 4",
    "Coverage Map": "https://radio-locator.com/pats/KFRZ_FM_LU.gif",
    "BUY SUMMARY FOLDER": "https://drive.google.com/drive/u/0/folders/1U_VBuZcO14Syvs-xZp3S_YXSRq8B8LyW"
  },
  {
    "Name": "KFSO 92.9FM",
    "Latitude": 36.6361,
    "Longitude": -118.9428,
    "Radius": 40,
    "Type": "Station",
    "Info": "<b>Genre:</b> Mexican Reg • <br><b>Station Rank:</b>  #3 DJ Velia • <br><b>Buy Region:</b> REG 3<br>",
    "Tombras Reg": "REG 3",
    "Coverage Map": "https://radio-locator.com/pats/KFSO_FM_LU.gif",
    "BUY SUMMARY FOLDER": "https://drive.google.com/drive/u/0/folders/1rl0md7_m5fjLpMnp7cdYZ-H4GBu1Sai_"
  },
  {
    "Name": "KFTM 1400AM & 94.1FM",
    "Latitude": 40.2586,
    "Longitude": -103.8519,
    "Radius": 75,
    "Type": "Station",
    "Info": "<b>Genre:</b> Classic Hits • <br><b>Station Rank:</b>  #2 Local News/Sports • <br><b>Buy Region:</b> REG 4<br>",
    "Tombras Reg": "REG 4",
    "Coverage Map": "https://radio-locator.com/pats/KFTM_AM_LD.gif",
    "BUY SUMMARY FOLDER": "https://drive.google.com/drive/u/0/folders/1U_VBuZcO14Syvs-xZp3S_YXSRq8B8LyW"
  },
  {
    "Name": "KFXX 1080AM",
    "Latitude": 45.5231,
    "Longitude": -122.6765,
    "Radius": 75,
    "Type": "Station",
    "Info": "<b>Genre:</b> All Sports • <br><b>Station Rank:</b>  #21t DJ End for Jason Swygard • <br><b>Buy Region:</b> REG 1<br>",
    "Tombras Reg": "REG 1",
    "Coverage Map": "https://radio-locator.com/pats/KFXX_AM_LD.gif",
    "BUY SUMMARY FOLDER": "https://drive.google.com/drive/u/0/folders/1nMkE1tn9_cG4msZr6eidoX5_wMJU52Vc"
  },
  {
    "Name": "KGAL 1580AM",
    "Latitude": 44.6365,
    "Longitude": -123.1059,
    "Radius": 75,
    "Type": "Station",
    "Info": "<b>Genre:</b> News Talk • <br><b>Station Rank:</b> Rank TBD • <br><b>Buy Region:</b> REG 1<br>",
    "Tombras Reg": "REG 1",
    "Coverage Map": "https://radio-locator.com/pats/KGAL_AM_LD.gif",
    "BUY SUMMARY FOLDER": "https://drive.google.com/drive/u/0/folders/1nMkE1tn9_cG4msZr6eidoX5_wMJU52Vc"
  },
  {
    "Name": "KGAM 106.3FM",
    "Latitude": 37.4264,
    "Longitude": -120.4414,
    "Radius": 40,
    "Type": "Station",
    "Info": "<b>Genre:</b> Spanish Hits • <br><b>Station Rank:</b>  #1 • <br><b>Buy Region:</b> REG 3<br>",
    "Tombras Reg": "REG 3",
    "Coverage Map": "https://radio-locator.com/pats/KGAM_FM_LU.gif",
    "BUY SUMMARY FOLDER": "https://drive.google.com/drive/u/0/folders/1rl0md7_m5fjLpMnp7cdYZ-H4GBu1Sai_"
  },
  {
    "Name": "KGEN 94.5FM",
    "Latitude": 36.2044,
    "Longitude": -119.5647,
    "Radius": 40,
    "Type": "Station",
    "Info": "<b>Genre:</b> Mex Reg • <br><b>Station Rank:</b>  #2 • <br><b>Buy Region:</b> REG 3<br>",
    "Tombras Reg": "REG 3",
    "Coverage Map": "https://radio-locator.com/pats/KGEN_FM_LU.gif",
    "BUY SUMMARY FOLDER": "https://drive.google.com/drive/u/0/folders/1rl0md7_m5fjLpMnp7cdYZ-H4GBu1Sai_"
  },
  {
    "Name": "KGFX 1060AM",
    "Latitude": 44.285,
    "Longitude": "–100.3469",
    "Radius": 75,
    "Type": "Station",
    "Info": "<b>Genre:</b> Classic Country • <br><b>Station Rank:</b>  #1 Hughes County • <br><b>Buy Region:</b> REG 5<br>",
    "Tombras Reg": "REG 5",
    "Coverage Map": "https://radio-locator.com/pats/KGFX_AM_LD.gif",
    "BUY SUMMARY FOLDER": "https://drive.google.com/drive/u/0/folders/1NulZObGfMQxt4V-N1ynOpSehlQxg8yWb"
  },
  {
    "Name": "KGGI 99.1FM",
    "Latitude": 34.2344,
    "Longitude": -117.1408,
    "Radius": 40,
    "Type": "Station",
    "Info": "<b>Genre:</b> Rhythmic CHR • <br><b>Station Rank:</b>  #13T • <br><b>Buy Region:</b> REG 3<br>",
    "Tombras Reg": "REG 3",
    "Coverage Map": "https://radio-locator.com/pats/KGGI_FM_LU.gif",
    "BUY SUMMARY FOLDER": "https://drive.google.com/drive/u/0/folders/1rl0md7_m5fjLpMnp7cdYZ-H4GBu1Sai_"
  },
  {
    "Name": "KGLB 1310AM",
    "Latitude": 44.777,
    "Longitude": "–94.1270",
    "Radius": 75,
    "Type": "Station",
    "Info": "<b>Genre:</b> Country • <br><b>Station Rank:</b>  #1 McLeod County • <br><b>Buy Region:</b> REG 5<br>",
    "Tombras Reg": "REG 5",
    "Coverage Map": "https://radio-locator.com/pats/KGLB_AM_LD.gif",
    "BUY SUMMARY FOLDER": "https://drive.google.com/drive/u/0/folders/1NulZObGfMQxt4V-N1ynOpSehlQxg8yWb"
  },
  {
    "Name": "KGLM 97.7FM",
    "Latitude": 46.6006,
    "Longitude": -112.8683,
    "Radius": 40,
    "Type": "Station",
    "Info": "<b>Genre:</b> Hot AC • <br><b>Station Rank:</b>  Unranked Silver Bow County • <br><b>Buy Region:</b> REG 2<br>",
    "Tombras Reg": "REG 2",
    "Coverage Map": "https://radio-locator.com/pats/KGLM_FM_LU.gif",
    "BUY SUMMARY FOLDER": "https://drive.google.com/drive/u/0/folders/1rhIm5d2x3MxVJrVzlcuE23LBz3oJJYqY"
  },
  {
    "Name": "KGMI 790AM",
    "Latitude": 48.721775,
    "Longitude": -122.446557,
    "Radius": 75,
    "Type": "Station",
    "Info": "<b>Genre:</b> News/Talk • <br><b>Station Rank:</b>  #4 • <br><b>Buy Region:</b> REG 2<br>",
    "Tombras Reg": "REG 2",
    "Coverage Map": "https://radio-locator.com/pats/KGMI_AM_LD.gif",
    "BUY SUMMARY FOLDER": "https://drive.google.com/drive/u/0/folders/1rhIm5d2x3MxVJrVzlcuE23LBz3oJJYqY"
  },
  {
    "Name": "KGON 92.3FM",
    "Latitude": 45.5231,
    "Longitude": -122.6765,
    "Radius": 40,
    "Type": "Station",
    "Info": "<b>Genre:</b> Cl Rock • <br><b>Station Rank:</b>  #7 • <br><b>Buy Region:</b> REG 1<br>",
    "Tombras Reg": "REG 1",
    "Coverage Map": "https://radio-locator.com/pats/KGON_FM_LU.gif",
    "BUY SUMMARY FOLDER": "https://drive.google.com/drive/u/0/folders/1nMkE1tn9_cG4msZr6eidoX5_wMJU52Vc"
  },
  {
    "Name": "KHGE 102.7FM",
    "Latitude": 36.8186,
    "Longitude": -119.51,
    "Radius": 40,
    "Type": "Station",
    "Info": "<b>Genre:</b> Country • <br><b>Station Rank:</b>  #10 • <br><b>Buy Region:</b> REG 3<br>",
    "Tombras Reg": "REG 3",
    "Coverage Map": "https://radio-locator.com/pats/KHGE_FM_LU.gif",
    "BUY SUMMARY FOLDER": "https://drive.google.com/drive/u/0/folders/1rl0md7_m5fjLpMnp7cdYZ-H4GBu1Sai_"
  },
  {
    "Name": "KHIP 104.3FM",
    "Latitude": 36.6683,
    "Longitude": -121.5203,
    "Radius": 40,
    "Type": "Station",
    "Info": "<b>Genre:</b> Classic Rock • <br><b>Station Rank:</b>  #4 • <br><b>Buy Region:</b> REG 3<br>",
    "Tombras Reg": "REG 3",
    "Coverage Map": "https://radio-locator.com/pats/KHIP_FM_LU.gif",
    "BUY SUMMARY FOLDER": "https://drive.google.com/drive/u/0/folders/1rl0md7_m5fjLpMnp7cdYZ-H4GBu1Sai_"
  },
  {
    "Name": "KHIX 96.7FM",
    "Latitude": 40.9197,
    "Longitude": -115.842,
    "Radius": 40,
    "Type": "Station",
    "Info": "<b>Genre:</b> CHR • <br><b>Station Rank:</b>  #2 Elko County NV • <br><b>Buy Region:</b> REG 4<br>",
    "Tombras Reg": "REG 4",
    "Coverage Map": "https://radio-locator.com/pats/KHIX_FM_LU.gif",
    "BUY SUMMARY FOLDER": "https://drive.google.com/drive/u/0/folders/1U_VBuZcO14Syvs-xZp3S_YXSRq8B8LyW"
  },
  {
    "Name": "KHKF 92.9FM",
    "Latitude": 45.309583,
    "Longitude": -117.733818,
    "Radius": 40,
    "Type": "Station",
    "Info": "<b>Genre:</b> Classic Rock • <br><b>Station Rank:</b>  #3 Umatilla County • <br><b>Buy Region:</b> REG 2<br>",
    "Tombras Reg": "REG 2",
    "Coverage Map": "https://radio-locator.com/pats/KHKF_FM_LU.gif",
    "BUY SUMMARY FOLDER": "https://drive.google.com/drive/u/0/folders/1rhIm5d2x3MxVJrVzlcuE23LBz3oJJYqY"
  },
  {
    "Name": "KHKK 104.1FM",
    "Latitude": 37.6528,
    "Longitude": -121.4783,
    "Radius": 40,
    "Type": "Station",
    "Info": "<b>Genre:</b> Classic Rock • <br><b>Station Rank:</b>  #3 • <br><b>Buy Region:</b> REG 3<br>",
    "Tombras Reg": "REG 3",
    "Coverage Map": "https://radio-locator.com/pats/KHKK_FM_LU.gif",
    "BUY SUMMARY FOLDER": "https://drive.google.com/drive/u/0/folders/1rl0md7_m5fjLpMnp7cdYZ-H4GBu1Sai_"
  },
  {
    "Name": "KHOP 95.1FM",
    "Latitude": 37.7928,
    "Longitude": -120.52,
    "Radius": 40,
    "Type": "Station",
    "Info": "<b>Genre:</b> Pop CHR • <br><b>Station Rank:</b>  #2 • <br><b>Buy Region:</b> REG 3<br>",
    "Tombras Reg": "REG 3",
    "Coverage Map": "https://radio-locator.com/pats/KHOP_FM_LU.gif",
    "BUY SUMMARY FOLDER": "https://drive.google.com/drive/u/0/folders/1rl0md7_m5fjLpMnp7cdYZ-H4GBu1Sai_"
  },
  {
    "Name": "KHPE 107.9FM",
    "Latitude": 44.6365,
    "Longitude": -123.1059,
    "Radius": 40,
    "Type": "Station",
    "Info": "<b>Genre:</b> Cont. Christian • <br><b>Station Rank:</b> Rank TBD • <br><b>Buy Region:</b> REG 1<br>",
    "Tombras Reg": "REG 1",
    "Coverage Map": "https://radio-locator.com/pats/KHPE_FM_LU.gif",
    "BUY SUMMARY FOLDER": "https://drive.google.com/drive/u/0/folders/1nMkE1tn9_cG4msZr6eidoX5_wMJU52Vc"
  },
  {
    "Name": "KHRD 103.1FM",
    "Latitude": 40.5865,
    "Longitude": -122.3917,
    "Radius": 40,
    "Type": "Station",
    "Info": "<b>Genre:</b> Classic Rock • <br><b>Station Rank:</b>  #3t • <br><b>Buy Region:</b> REG 1<br>",
    "Tombras Reg": "REG 1",
    "Coverage Map": "https://radio-locator.com/pats/KHRD_FM_LU.gif",
    "BUY SUMMARY FOLDER": "https://drive.google.com/drive/u/0/folders/1nMkE1tn9_cG4msZr6eidoX5_wMJU52Vc"
  },
  {
    "Name": "KHTN 104.7FM",
    "Latitude": 37.5414,
    "Longitude": -120.0311,
    "Radius": 40,
    "Type": "Station",
    "Info": "<b>Genre:</b> Rhythmic CHR • <br><b>Station Rank:</b>  #1t • <br><b>Buy Region:</b> REG 3<br>",
    "Tombras Reg": "REG 3",
    "Coverage Map": "https://radio-locator.com/pats/KHTN_FM_LU.gif",
    "BUY SUMMARY FOLDER": "https://drive.google.com/drive/u/0/folders/1rl0md7_m5fjLpMnp7cdYZ-H4GBu1Sai_"
  },
  {
    "Name": "KHTP 103.7FM",
    "Latitude": 47.5037,
    "Longitude": -121.9759,
    "Radius": 40,
    "Type": "Station",
    "Info": "<b>Genre:</b> Rhythmic AC • <br><b>Station Rank:</b>  #13 • <br><b>Buy Region:</b> REG 2<br>",
    "Tombras Reg": "REG 2",
    "Coverage Map": "https://radio-locator.com/pats/KHTP_FM_LU.gif",
    "BUY SUMMARY FOLDER": "https://drive.google.com/drive/u/0/folders/1rhIm5d2x3MxVJrVzlcuE23LBz3oJJYqY"
  },
  {
    "Name": "KHTQ 94.5FM",
    "Latitude": 47.6594,
    "Longitude": -116.9644,
    "Radius": 40,
    "Type": "Station",
    "Info": "<b>Genre:</b> Active Rock • <br><b>Station Rank:</b>  #4 • <br><b>Buy Region:</b> REG 2<br>",
    "Tombras Reg": "REG 2",
    "Coverage Map": "https://radio-locator.com/pats/KHTQ_FM_LU.gif",
    "BUY SUMMARY FOLDER": "https://drive.google.com/drive/u/0/folders/1rhIm5d2x3MxVJrVzlcuE23LBz3oJJYqY"
  },
  {
    "Name": "KHYL 101.1FM",
    "Latitude": 38.8578,
    "Longitude": -121.0286,
    "Radius": 40,
    "Type": "Station",
    "Info": "<b>Genre:</b> Urban AC • <br><b>Station Rank:</b>  #4T • <br><b>Buy Region:</b> REG 3<br>",
    "Tombras Reg": "REG 3",
    "Coverage Map": "https://radio-locator.com/pats/KHYL_FM_LU.gif",
    "BUY SUMMARY FOLDER": "https://drive.google.com/drive/u/0/folders/1rl0md7_m5fjLpMnp7cdYZ-H4GBu1Sai_"
  },
  {
    "Name": "KIBT 96.1FM",
    "Latitude": 38.7456,
    "Longitude": -104.8622,
    "Radius": 40,
    "Type": "Station",
    "Info": "<b>Genre:</b> Rhythmic Contemporary Hit Radio • <br><b>Station Rank:</b>  #7 • <br><b>Buy Region:</b> REG 4<br>",
    "Tombras Reg": "REG 4",
    "Coverage Map": "https://radio-locator.com/pats/KIBT_FM_LU.gif",
    "BUY SUMMARY FOLDER": "https://drive.google.com/drive/u/0/folders/1U_VBuZcO14Syvs-xZp3S_YXSRq8B8LyW"
  },
  {
    "Name": "KICR 102.3FM",
    "Latitude": 47.6597,
    "Longitude": -116.9533,
    "Radius": 40,
    "Type": "Station",
    "Info": "<b>Genre:</b> Country • <br><b>Station Rank:</b>  #1 Kootenai County • <br><b>Buy Region:</b> REG 2<br>",
    "Tombras Reg": "REG 2",
    "Coverage Map": "https://radio-locator.com/pats/KICR_FM_LU.gif",
    "BUY SUMMARY FOLDER": "https://drive.google.com/drive/u/0/folders/1rhIm5d2x3MxVJrVzlcuE23LBz3oJJYqY"
  },
  {
    "Name": "KIGN 101.9FM",
    "Latitude": 41.3057,
    "Longitude": -104.4518,
    "Radius": 40,
    "Type": "Station",
    "Info": "<b>Genre:</b> CHR • <br><b>Station Rank:</b>  #2 • <br><b>Buy Region:</b> REG 4<br>",
    "Tombras Reg": "REG 4",
    "Coverage Map": "https://radio-locator.com/pats/KIGN_FM_LU.gif",
    "BUY SUMMARY FOLDER": "https://drive.google.com/drive/u/0/folders/1U_VBuZcO14Syvs-xZp3S_YXSRq8B8LyW"
  },
  {
    "Name": "KIKC 97.9FM",
    "Latitude": 46.1756,
    "Longitude": -106.4064,
    "Radius": 40,
    "Type": "Station",
    "Info": "<b>Genre:</b> Country • <br><b>Station Rank:</b>  #1 Custer County • <br><b>Buy Region:</b> REG 2<br>",
    "Tombras Reg": "REG 2",
    "Coverage Map": "https://radio-locator.com/pats/KIKC_FM_LU.gif",
    "BUY SUMMARY FOLDER": "https://drive.google.com/drive/u/0/folders/1rhIm5d2x3MxVJrVzlcuE23LBz3oJJYqY"
  },
  {
    "Name": "KILO 94.3FM",
    "Latitude": 38.7456,
    "Longitude": -104.8622,
    "Radius": 40,
    "Type": "Station",
    "Info": "<b>Genre:</b> Active Rock • <br><b>Station Rank:</b>  #2 • <br><b>Buy Region:</b> REG 4<br>",
    "Tombras Reg": "REG 4",
    "Coverage Map": "https://radio-locator.com/pats/KILO_FM_LU.gif",
    "BUY SUMMARY FOLDER": "https://drive.google.com/drive/u/0/folders/1U_VBuZcO14Syvs-xZp3S_YXSRq8B8LyW"
  },
  {
    "Name": "KIMN 11FM",
    "Latitude": 39.6733,
    "Longitude": -105.2189,
    "Radius": 40,
    "Type": "Station",
    "Info": "<b>Genre:</b> Hot Adult Contemporary • <br><b>Station Rank:</b>  #11 • <br><b>Buy Region:</b> REG 4<br>",
    "Tombras Reg": "REG 4",
    "Coverage Map": "https://radio-locator.com/pats/KIMN_FM_LU.gif",
    "BUY SUMMARY FOLDER": "https://drive.google.com/drive/u/0/folders/1U_VBuZcO14Syvs-xZp3S_YXSRq8B8LyW"
  },
  {
    "Name": "KINK 101.9FM",
    "Latitude": 45.5231,
    "Longitude": -122.6765,
    "Radius": 40,
    "Type": "Station",
    "Info": "<b>Genre:</b> Album Ad Alternative • <br><b>Station Rank:</b>  #3 • <br><b>Buy Region:</b> REG 1<br>",
    "Tombras Reg": "REG 1",
    "Coverage Map": "https://radio-locator.com/pats/KINK_FM_LU.gif",
    "BUY SUMMARY FOLDER": "https://drive.google.com/drive/u/0/folders/1nMkE1tn9_cG4msZr6eidoX5_wMJU52Vc"
  },
  {
    "Name": "KIRO 97.3FM",
    "Latitude": 47.5037,
    "Longitude": -121.9759,
    "Radius": 40,
    "Type": "Station",
    "Info": "<b>Genre:</b> News/Talk • <br><b>Station Rank:</b>  #8 • <br><b>Buy Region:</b> REG 2<br>",
    "Tombras Reg": "REG 2",
    "Coverage Map": "https://radio-locator.com/pats/KIRO_FM_LU.gif",
    "BUY SUMMARY FOLDER": "https://drive.google.com/drive/u/0/folders/1rhIm5d2x3MxVJrVzlcuE23LBz3oJJYqY"
  },
  {
    "Name": "KISC 98.1FM",
    "Latitude": 47.5813,
    "Longitude": -117.2974,
    "Radius": 40,
    "Type": "Station",
    "Info": "<b>Genre:</b> AC • <br><b>Station Rank:</b>  #5 • <br><b>Buy Region:</b> REG 2<br>",
    "Tombras Reg": "REG 2",
    "Coverage Map": "https://radio-locator.com/pats/KISC_FM_LU.gif",
    "BUY SUMMARY FOLDER": "https://drive.google.com/drive/u/0/folders/1rhIm5d2x3MxVJrVzlcuE23LBz3oJJYqY"
  },
  {
    "Name": "KISM 92.9FM",
    "Latitude": 48.6797,
    "Longitude": -122.8414,
    "Radius": 40,
    "Type": "Station",
    "Info": "<b>Genre:</b> Classic Rock • <br><b>Station Rank:</b>  #2 • <br><b>Buy Region:</b> REG 2<br>",
    "Tombras Reg": "REG 2",
    "Coverage Map": "https://radio-locator.com/pats/KISM_FM_LU.gif",
    "BUY SUMMARY FOLDER": "https://drive.google.com/drive/u/0/folders/1rhIm5d2x3MxVJrVzlcuE23LBz3oJJYqY"
  },
  {
    "Name": "KISW 99.9FM",
    "Latitude": 47.5037,
    "Longitude": -121.9759,
    "Radius": 40,
    "Type": "Station",
    "Info": "<b>Genre:</b> AOR • <br><b>Station Rank:</b>  #1 • <br><b>Buy Region:</b> REG 2<br>",
    "Tombras Reg": "REG 2",
    "Coverage Map": "https://radio-locator.com/pats/KISW_FM_LU.gif",
    "BUY SUMMARY FOLDER": "https://drive.google.com/drive/u/0/folders/1rhIm5d2x3MxVJrVzlcuE23LBz3oJJYqY"
  },
  {
    "Name": "KIWI 102.9FM",
    "Latitude": 35.3211,
    "Longitude": -119.7081,
    "Radius": 40,
    "Type": "Station",
    "Info": "<b>Genre:</b> Reg. Mex • <br><b>Station Rank:</b>  #1 • <br><b>Buy Region:</b> REG 3<br>",
    "Tombras Reg": "REG 3",
    "Coverage Map": "https://radio-locator.com/pats/KIWI_FM_LU.gif",
    "BUY SUMMARY FOLDER": "https://drive.google.com/drive/u/0/folders/1rl0md7_m5fjLpMnp7cdYZ-H4GBu1Sai_"
  },
  {
    "Name": "KIZN 92.3FM",
    "Latitude": 43.7558,
    "Longitude": -116.0992,
    "Radius": 40,
    "Type": "Station",
    "Info": "<b>Genre:</b> New Country • <br><b>Station Rank:</b>  #7T • <br><b>Buy Region:</b> REG 4<br>",
    "Tombras Reg": "REG 4",
    "Coverage Map": "https://radio-locator.com/pats/KIZN_FM_LU.gif",
    "BUY SUMMARY FOLDER": "https://drive.google.com/drive/u/0/folders/1U_VBuZcO14Syvs-xZp3S_YXSRq8B8LyW"
  },
  {
    "Name": "KJAQ 96.5FM",
    "Latitude": 47.5037,
    "Longitude": -121.9759,
    "Radius": 40,
    "Type": "Station",
    "Info": "<b>Genre:</b> Adult Hits • <br><b>Station Rank:</b>  #9 • <br><b>Buy Region:</b> REG 2<br>",
    "Tombras Reg": "REG 2",
    "Coverage Map": "https://radio-locator.com/pats/KJAQ_FM_LU.gif",
    "BUY SUMMARY FOLDER": "https://drive.google.com/drive/u/0/folders/1rhIm5d2x3MxVJrVzlcuE23LBz3oJJYqY"
  },
  {
    "Name": "KJBI 100.1FM",
    "Latitude": 44.308316,
    "Longitude": -100.3499289,
    "Radius": 40,
    "Type": "Station",
    "Info": "<b>Genre:</b> Classic Hits • <br><b>Station Rank:</b>  #2 Hughes County • <br><b>Buy Region:</b> REG 5<br>",
    "Tombras Reg": "REG 5",
    "Coverage Map": "https://radio-locator.com/pats/KJBI_FM_LU.gif",
    "BUY SUMMARY FOLDER": "https://drive.google.com/drive/u/0/folders/1NulZObGfMQxt4V-N1ynOpSehlQxg8yWb"
  },
  {
    "Name": "KJEB 95.7FM",
    "Latitude": 47.5442,
    "Longitude": -122.1083,
    "Radius": 40,
    "Type": "Station",
    "Info": "<b>Genre:</b> Classic Hits • <br><b>Station Rank:</b>  #10 • <br><b>Buy Region:</b> REG 2<br>",
    "Tombras Reg": "REG 2",
    "Coverage Map": "https://radio-locator.com/pats/KJEB_FM_LU.gif",
    "BUY SUMMARY FOLDER": "https://drive.google.com/drive/u/0/folders/1rhIm5d2x3MxVJrVzlcuE23LBz3oJJYqY"
  },
  {
    "Name": "KJKJ 107.5FM",
    "Latitude": 47.964423,
    "Longitude": -97.0323719,
    "Radius": 40,
    "Type": "Station",
    "Info": "<b>Genre:</b> Active Rock • <br><b>Station Rank:</b>  #1 • <br><b>Buy Region:</b> REG 5<br>",
    "Tombras Reg": "REG 5",
    "Coverage Map": "https://radio-locator.com/pats/KJKJ_FM_LU.gif",
    "BUY SUMMARY FOLDER": "https://drive.google.com/drive/u/0/folders/1NulZObGfMQxt4V-N1ynOpSehlQxg8yWb"
  },
  {
    "Name": "KJMY 99.5FM",
    "Latitude": 40.6081,
    "Longitude": -112.16,
    "Radius": 40,
    "Type": "Station",
    "Info": "<b>Genre:</b> HAC • <br><b>Station Rank:</b>  #13 • <br><b>Buy Region:</b> REG 4<br>",
    "Tombras Reg": "REG 4",
    "Coverage Map": "https://radio-locator.com/pats/KJMY_FM_LU.gif",
    "BUY SUMMARY FOLDER": "https://drive.google.com/drive/u/0/folders/1U_VBuZcO14Syvs-xZp3S_YXSRq8B8LyW"
  },
  {
    "Name": "KJOT 105.1FM",
    "Latitude": 43.755,
    "Longitude": -116.098,
    "Radius": 40,
    "Type": "Station",
    "Info": "<b>Genre:</b> Adult Hits • <br><b>Station Rank:</b>  #10T • <br><b>Buy Region:</b> REG 4<br>",
    "Tombras Reg": "REG 4",
    "Coverage Map": "https://radio-locator.com/pats/KJOT_FM_LU.gif",
    "BUY SUMMARY FOLDER": "https://drive.google.com/drive/u/0/folders/1U_VBuZcO14Syvs-xZp3S_YXSRq8B8LyW"
  },
  {
    "Name": "KJOY 99.3FM",
    "Latitude": 37.9917,
    "Longitude": -121.2892,
    "Radius": 40,
    "Type": "Station",
    "Info": "<b>Genre:</b> Adult Contemp • <br><b>Station Rank:</b>  #7 • <br><b>Buy Region:</b> REG 3<br>",
    "Tombras Reg": "REG 3",
    "Coverage Map": "https://radio-locator.com/pats/KJOY_FM_LU.gif",
    "BUY SUMMARY FOLDER": "https://drive.google.com/drive/u/0/folders/1rl0md7_m5fjLpMnp7cdYZ-H4GBu1Sai_"
  },
  {
    "Name": "KJR  93.3FM",
    "Latitude": 47.5442,
    "Longitude": -122.1083,
    "Radius": 40,
    "Type": "Station",
    "Info": "<b>Genre:</b> Sports • <br><b>Station Rank:</b>  #14 • <br><b>Buy Region:</b> REG 2<br>",
    "Tombras Reg": "REG 2",
    "Coverage Map": "https://radio-locator.com/pats/KJR_FM_LU.gif",
    "BUY SUMMARY FOLDER": "https://drive.google.com/drive/u/0/folders/1rhIm5d2x3MxVJrVzlcuE23LBz3oJJYqY"
  },
  {
    "Name": "KJUG 106.7FM",
    "Latitude": 36.2422,
    "Longitude": -118.8731,
    "Radius": 40,
    "Type": "Station",
    "Info": "<b>Genre:</b> Country • <br><b>Station Rank:</b>  #1 Visalia County • <br><b>Buy Region:</b> REG 3<br>",
    "Tombras Reg": "REG 3",
    "Coverage Map": "https://radio-locator.com/pats/KJUG_FM_LU.gif",
    "BUY SUMMARY FOLDER": "https://drive.google.com/drive/u/0/folders/1rl0md7_m5fjLpMnp7cdYZ-H4GBu1Sai_"
  },
  {
    "Name": "KKCW 103.3FM",
    "Latitude": 45.5231,
    "Longitude": -122.6765,
    "Radius": 40,
    "Type": "Station",
    "Info": "<b>Genre:</b> AC • <br><b>Station Rank:</b>  #1t • <br><b>Buy Region:</b> REG 1<br>",
    "Tombras Reg": "REG 1",
    "Coverage Map": "https://radio-locator.com/pats/KKCW_FM_LU.gif",
    "BUY SUMMARY FOLDER": "https://drive.google.com/drive/u/0/folders/1nMkE1tn9_cG4msZr6eidoX5_wMJU52Vc"
  },
  {
    "Name": "KKDC 93.3FM",
    "Latitude": 37.465549,
    "Longitude": -108.5321109,
    "Radius": 40,
    "Type": "Station",
    "Info": "<b>Genre:</b> Adult Alternative • <br><b>Station Rank:</b>  #1 Montezuma County • <br><b>Buy Region:</b> REG 5<br>",
    "Tombras Reg": "REG 5",
    "Coverage Map": "https://radio-locator.com/pats/KKDC_FM_LU.gif",
    "BUY SUMMARY FOLDER": "https://drive.google.com/drive/u/0/folders/1NulZObGfMQxt4V-N1ynOpSehlQxg8yWb"
  },
  {
    "Name": "KKDO 94.7FM",
    "Latitude": 38.6728,
    "Longitude": -121.3322,
    "Radius": 40,
    "Type": "Station",
    "Info": "<b>Genre:</b> Alternative • <br><b>Station Rank:</b>  #8t • <br><b>Buy Region:</b> REG 3<br>",
    "Tombras Reg": "REG 3",
    "Coverage Map": "https://radio-locator.com/pats/KKDO_FM_LU.gif",
    "BUY SUMMARY FOLDER": "https://drive.google.com/drive/u/0/folders/1rl0md7_m5fjLpMnp7cdYZ-H4GBu1Sai_"
  },
  {
    "Name": "KKEX 96.7FM",
    "Latitude": 41.8717,
    "Longitude": -111.8094,
    "Radius": 40,
    "Type": "Station",
    "Info": "<b>Genre:</b> Country • <br><b>Station Rank:</b>  #1 Cache County UT • <br><b>Buy Region:</b> REG 4<br>",
    "Tombras Reg": "REG 4",
    "Coverage Map": "https://radio-locator.com/pats/KKEX_FM_LU.gif",
    "BUY SUMMARY FOLDER": "https://drive.google.com/drive/u/0/folders/1U_VBuZcO14Syvs-xZp3S_YXSRq8B8LyW"
  },
  {
    "Name": "KKFG 104.5FM",
    "Latitude": 36.642507,
    "Longitude": -107.7848569,
    "Radius": 40,
    "Type": "Station",
    "Info": "<b>Genre:</b> Classic Hits • <br><b>Station Rank:</b>  #2T • <br><b>Buy Region:</b> REG 5<br>",
    "Tombras Reg": "REG 5",
    "Coverage Map": "https://radio-locator.com/pats/KKFG_FM_LU.gif",
    "BUY SUMMARY FOLDER": "https://drive.google.com/drive/u/0/folders/1NulZObGfMQxt4V-N1ynOpSehlQxg8yWb"
  },
  {
    "Name": "KKFM 98.1FM",
    "Latitude": 38.7433,
    "Longitude": -104.8628,
    "Radius": 40,
    "Type": "Station",
    "Info": "<b>Genre:</b> Classic Rock • <br><b>Station Rank:</b>  #1 • <br><b>Buy Region:</b> REG 4<br>",
    "Tombras Reg": "REG 4",
    "Coverage Map": "https://radio-locator.com/pats/KKFM_FM_LU.gif",
    "BUY SUMMARY FOLDER": "https://drive.google.com/drive/u/0/folders/1U_VBuZcO14Syvs-xZp3S_YXSRq8B8LyW"
  },
  {
    "Name": "KKGL 96.9FM",
    "Latitude": 43.7558,
    "Longitude": -116.0992,
    "Radius": 40,
    "Type": "Station",
    "Info": "<b>Genre:</b> Classic Rock • <br><b>Station Rank:</b>  #6 • <br><b>Buy Region:</b> REG 4<br>",
    "Tombras Reg": "REG 4",
    "Coverage Map": "https://radio-locator.com/pats/KKGL_FM_LU.gif",
    "BUY SUMMARY FOLDER": "https://drive.google.com/drive/u/0/folders/1U_VBuZcO14Syvs-xZp3S_YXSRq8B8LyW"
  },
  {
    "Name": "KKHB 105.5FM",
    "Latitude": 40.7303,
    "Longitude": -123.9531,
    "Radius": 40,
    "Type": "Station",
    "Info": "<b>Genre:</b> Classic Hits • <br><b>Station Rank:</b>  #1 • <br><b>Buy Region:</b> REG 1<br>",
    "Tombras Reg": "REG 1",
    "Coverage Map": "https://radio-locator.com/pats/KKHB_FM_LU.gif",
    "BUY SUMMARY FOLDER": "https://drive.google.com/drive/u/0/folders/1nMkE1tn9_cG4msZr6eidoX5_wMJU52Vc"
  },
  {
    "Name": "KKLI 106.3FM",
    "Latitude": 38.7464,
    "Longitude": -104.8608,
    "Radius": 40,
    "Type": "Station",
    "Info": "<b>Genre:</b> Adult Contemporary • <br><b>Station Rank:</b>  #9 Tied • <br><b>Buy Region:</b> REG 4<br>",
    "Tombras Reg": "REG 4",
    "Coverage Map": "https://radio-locator.com/pats/KKLI_FM_LU.gif",
    "BUY SUMMARY FOLDER": "https://drive.google.com/drive/u/0/folders/1U_VBuZcO14Syvs-xZp3S_YXSRq8B8LyW"
  },
  {
    "Name": "KKMV 106.1FM",
    "Latitude": 42.3342,
    "Longitude": -113.6033,
    "Radius": 40,
    "Type": "Station",
    "Info": "<b>Genre:</b> Country • <br><b>Station Rank:</b>  #3 • <br><b>Buy Region:</b> REG 4<br>",
    "Tombras Reg": "REG 4",
    "Coverage Map": "https://radio-locator.com/pats/KKMV_FM_LU.gif",
    "BUY SUMMARY FOLDER": "https://drive.google.com/drive/u/0/folders/1U_VBuZcO14Syvs-xZp3S_YXSRq8B8LyW"
  },
  {
    "Name": "KKNU 93.3FM",
    "Latitude": 44.0521,
    "Longitude": -123.0868,
    "Radius": 40,
    "Type": "Station",
    "Info": "<b>Genre:</b> Country • <br><b>Station Rank:</b>  #1 • <br><b>Buy Region:</b> REG 1<br>",
    "Tombras Reg": "REG 1",
    "Coverage Map": "https://radio-locator.com/pats/KKNU_FM_LU.gif",
    "BUY SUMMARY FOLDER": "https://drive.google.com/drive/u/0/folders/1nMkE1tn9_cG4msZr6eidoX5_wMJU52Vc"
  },
  {
    "Name": "KKPK 92.9FM",
    "Latitude": 38.7456,
    "Longitude": -104.8622,
    "Radius": 40,
    "Type": "Station",
    "Info": "<b>Genre:</b> Adult Hits • <br><b>Station Rank:</b>  #5 • <br><b>Buy Region:</b> REG 4<br>",
    "Tombras Reg": "REG 4",
    "Coverage Map": "https://radio-locator.com/pats/KKPK_FM_LU.gif",
    "BUY SUMMARY FOLDER": "https://drive.google.com/drive/u/0/folders/1U_VBuZcO14Syvs-xZp3S_YXSRq8B8LyW"
  },
  {
    "Name": "KKPL 99.9FM",
    "Latitude": 40.927917,
    "Longitude": -105.1458249,
    "Radius": 40,
    "Type": "Station",
    "Info": "<b>Genre:</b> Hot Adult Contemporary • <br><b>Station Rank:</b>  #15 Tied • <br><b>Buy Region:</b> REG 4<br>",
    "Tombras Reg": "REG 4",
    "Coverage Map": "https://radio-locator.com/pats/KKPL_FM_LU.gif",
    "BUY SUMMARY FOLDER": "https://drive.google.com/drive/u/0/folders/1U_VBuZcO14Syvs-xZp3S_YXSRq8B8LyW"
  },
  {
    "Name": "KKRC 97.3FM",
    "Latitude": 43.729421,
    "Longitude": -97.0901329,
    "Radius": 40,
    "Type": "Station",
    "Info": "<b>Genre:</b> Classic Hits • <br><b>Station Rank:</b>  #5 • <br><b>Buy Region:</b> REG 5<br>",
    "Tombras Reg": "REG 5",
    "Coverage Map": "https://radio-locator.com/pats/KKRC_FM_LU.gif",
    "BUY SUMMARY FOLDER": "https://drive.google.com/drive/u/0/folders/1NulZObGfMQxt4V-N1ynOpSehlQxg8yWb"
  },
  {
    "Name": "KKRV 104.7FM",
    "Latitude": 47.4788,
    "Longitude": -120.2145,
    "Radius": 40,
    "Type": "Station",
    "Info": "<b>Genre:</b> Country • <br><b>Station Rank:</b>  #1 • <br><b>Buy Region:</b> REG 2<br>",
    "Tombras Reg": "REG 2",
    "Coverage Map": "https://radio-locator.com/pats/KKRV_FM_LU.gif",
    "BUY SUMMARY FOLDER": "https://drive.google.com/drive/u/0/folders/1rhIm5d2x3MxVJrVzlcuE23LBz3oJJYqY"
  },
  {
    "Name": "KKRZ 100.3FM",
    "Latitude": 45.5231,
    "Longitude": -122.6765,
    "Radius": 40,
    "Type": "Station",
    "Info": "<b>Genre:</b> Pop CHR • <br><b>Station Rank:</b>  #9 • <br><b>Buy Region:</b> REG 1<br>",
    "Tombras Reg": "REG 1",
    "Coverage Map": "https://radio-locator.com/pats/KKRZ_FM_LU.gif",
    "BUY SUMMARY FOLDER": "https://drive.google.com/drive/u/0/folders/1nMkE1tn9_cG4msZr6eidoX5_wMJU52Vc"
  },
  {
    "Name": "KKSR 95.7FM",
    "Latitude": 45.9842,
    "Longitude": -118.17,
    "Radius": 40,
    "Type": "Station",
    "Info": "<b>Genre:</b> Classic Hits • <br><b>Station Rank:</b>  #2T • <br><b>Buy Region:</b> REG 2<br>",
    "Tombras Reg": "REG 2",
    "Coverage Map": "https://radio-locator.com/pats/KKSR_FM_LU.gif",
    "BUY SUMMARY FOLDER": "https://drive.google.com/drive/u/0/folders/1rhIm5d2x3MxVJrVzlcuE23LBz3oJJYqY"
  },
  {
    "Name": "KKWF 100.7FM",
    "Latitude": 47.5047,
    "Longitude": -121.9689,
    "Radius": 40,
    "Type": "Station",
    "Info": "<b>Genre:</b> Country • <br><b>Station Rank:</b>  #2 • <br><b>Buy Region:</b> REG 2<br>",
    "Tombras Reg": "REG 2",
    "Coverage Map": "https://radio-locator.com/pats/KKWF_FM_LU.gif",
    "BUY SUMMARY FOLDER": "https://drive.google.com/drive/u/0/folders/1rhIm5d2x3MxVJrVzlcuE23LBz3oJJYqY"
  },
  {
    "Name": "KKXL 92.9FM",
    "Latitude": 47.964423,
    "Longitude": -97.0323719,
    "Radius": 40,
    "Type": "Station",
    "Info": "<b>Genre:</b> Pop Cont Hit Radio • <br><b>Station Rank:</b>  #4T • <br><b>Buy Region:</b> REG 5<br>",
    "Tombras Reg": "REG 5",
    "Coverage Map": "https://radio-locator.com/pats/KKXL_FM_LU.gif",
    "BUY SUMMARY FOLDER": "https://drive.google.com/drive/u/0/folders/1NulZObGfMQxt4V-N1ynOpSehlQxg8yWb"
  },
  {
    "Name": "KKZX 98.9FM",
    "Latitude": 47.5931,
    "Longitude": -117.2972,
    "Radius": 40,
    "Type": "Station",
    "Info": "<b>Genre:</b> Classic Rock • <br><b>Station Rank:</b>  #1 • <br><b>Buy Region:</b> REG 2<br>",
    "Tombras Reg": "REG 2",
    "Coverage Map": "https://radio-locator.com/pats/KKZX_FM_LU.gif",
    "BUY SUMMARY FOLDER": "https://drive.google.com/drive/u/0/folders/1rhIm5d2x3MxVJrVzlcuE23LBz3oJJYqY"
  },
  {
    "Name": "KLBN 101.9FM",
    "Latitude": 37.0728,
    "Longitude": -119.4322,
    "Radius": 40,
    "Type": "Station",
    "Info": "<b>Genre:</b> Reg. Mex • <br><b>Station Rank:</b>  #1 • <br><b>Buy Region:</b> REG 3<br>",
    "Tombras Reg": "REG 3",
    "Coverage Map": "https://radio-locator.com/pats/KLBN_FM_LU.gif",
    "BUY SUMMARY FOLDER": "https://drive.google.com/drive/u/0/folders/1rl0md7_m5fjLpMnp7cdYZ-H4GBu1Sai_"
  },
  {
    "Name": "KLCE 97.3FM",
    "Latitude": 43.5008,
    "Longitude": -112.6628,
    "Radius": 40,
    "Type": "Station",
    "Info": "<b>Genre:</b> Adult Contemporary • <br><b>Station Rank:</b>  #2 Idaho Falls Bonneville County • <br><b>Buy Region:</b> REG 4<br>",
    "Tombras Reg": "REG 4",
    "Coverage Map": "https://radio-locator.com/pats/KLCE_FM_LU.gif",
    "BUY SUMMARY FOLDER": "https://drive.google.com/drive/u/0/folders/1U_VBuZcO14Syvs-xZp3S_YXSRq8B8LyW"
  },
  {
    "Name": "KLDR 98.3FM",
    "Latitude": 42.439,
    "Longitude": -123.327,
    "Radius": 40,
    "Type": "Station",
    "Info": "<b>Genre:</b> Hot AC • <br><b>Station Rank:</b>  #4 Josephine County • <br><b>Buy Region:</b> REG 1<br>",
    "Tombras Reg": "REG 1",
    "Coverage Map": "https://radio-locator.com/pats/KLDR_FM_LU.gif",
    "BUY SUMMARY FOLDER": "https://drive.google.com/drive/u/0/folders/1nMkE1tn9_cG4msZr6eidoX5_wMJU52Vc"
  },
  {
    "Name": "KLED 95.7FM",
    "Latitude": 44.243028,
    "Longitude": -105.5417419,
    "Radius": 40,
    "Type": "Station",
    "Info": "<b>Genre:</b> Classic Country • <br><b>Station Rank:</b>  #2 Campbell County WY • <br><b>Buy Region:</b> REG 4<br>",
    "Tombras Reg": "REG 4",
    "Coverage Map": "https://radio-locator.com/pats/KLED_FM_LU.gif",
    "BUY SUMMARY FOLDER": "https://drive.google.com/drive/u/0/folders/1U_VBuZcO14Syvs-xZp3S_YXSRq8B8LyW"
  },
  {
    "Name": "KLFM 92.9FM",
    "Latitude": 47.5386,
    "Longitude": -111.2614,
    "Radius": 40,
    "Type": "Station",
    "Info": "<b>Genre:</b> Classic Hits • <br><b>Station Rank:</b>  #2 • <br><b>Buy Region:</b> REG 2<br>",
    "Tombras Reg": "REG 2",
    "Coverage Map": "https://radio-locator.com/pats/KLFM_FM_LU.gif",
    "BUY SUMMARY FOLDER": "https://drive.google.com/drive/u/0/folders/1rhIm5d2x3MxVJrVzlcuE23LBz3oJJYqY"
  },
  {
    "Name": "KLFN 106.5FM",
    "Latitude": 45.370519,
    "Longitude": -95.1439839,
    "Radius": 40,
    "Type": "Station",
    "Info": "<b>Genre:</b> Classic Hits • <br><b>Station Rank:</b>  #2 Kandiyohi County • <br><b>Buy Region:</b> REG 5<br>",
    "Tombras Reg": "REG 5",
    "Coverage Map": "https://radio-locator.com/pats/KLFN_FM_LU.gif",
    "BUY SUMMARY FOLDER": "https://drive.google.com/drive/u/0/folders/1NulZObGfMQxt4V-N1ynOpSehlQxg8yWb"
  },
  {
    "Name": "KLGL 94.5FM",
    "Latitude": 39.3807763,
    "Longitude": -111.058348,
    "Radius": 40,
    "Type": "Station",
    "Info": "<b>Genre:</b> AC • <br><b>Station Rank:</b>  #5 Sevier County UT • <br><b>Buy Region:</b> REG 4<br>",
    "Tombras Reg": "REG 4",
    "Coverage Map": "https://radio-locator.com/pats/KLGL_FM_LU.gif",
    "BUY SUMMARY FOLDER": "https://drive.google.com/drive/u/0/folders/1U_VBuZcO14Syvs-xZp3S_YXSRq8B8LyW"
  },
  {
    "Name": "KLIX 96.5FM",
    "Latitude": 42.5511,
    "Longitude": -114.5172,
    "Radius": 40,
    "Type": "Station",
    "Info": "<b>Genre:</b> Classic Hits • <br><b>Station Rank:</b>  #5 News/Talk 1310AM • <br><b>Buy Region:</b> REG 4<br>",
    "Tombras Reg": "REG 4",
    "Coverage Map": "https://radio-locator.com/pats/KLIX_FM_LU.gif",
    "BUY SUMMARY FOLDER": "https://drive.google.com/drive/u/0/folders/1U_VBuZcO14Syvs-xZp3S_YXSRq8B8LyW"
  },
  {
    "Name": "KLKY 96.1FM",
    "Latitude": 45.7783,
    "Longitude": -119.2153,
    "Radius": 40,
    "Type": "Station",
    "Info": "<b>Genre:</b> Classic Rock • <br><b>Station Rank:</b> Rank TBD • <br><b>Buy Region:</b> REG 2<br>",
    "Tombras Reg": "REG 2",
    "Coverage Map": "https://radio-locator.com/pats/KLKY_FM_LU.gif",
    "BUY SUMMARY FOLDER": "https://drive.google.com/drive/u/0/folders/1rhIm5d2x3MxVJrVzlcuE23LBz3oJJYqY"
  },
  {
    "Name": "KLMI 106.1FM",
    "Latitude": 41.484692,
    "Longitude": -106.0548039,
    "Radius": 40,
    "Type": "Station",
    "Info": "<b>Genre:</b> Adult Hits • <br><b>Station Rank:</b>  #3 Albany County WY • <br><b>Buy Region:</b> REG 4<br>",
    "Tombras Reg": "REG 4",
    "Coverage Map": "https://radio-locator.com/pats/KLMI_FM_LU.gif",
    "BUY SUMMARY FOLDER": "https://drive.google.com/drive/u/0/folders/1U_VBuZcO14Syvs-xZp3S_YXSRq8B8LyW"
  },
  {
    "Name": "KLOO 106.3FM",
    "Latitude": 44.6365,
    "Longitude": -123.1059,
    "Radius": 40,
    "Type": "Station",
    "Info": "<b>Genre:</b> Cl Rock • <br><b>Station Rank:</b>  #2 Linn County #1 Benton County • <br><b>Buy Region:</b> REG 1<br>",
    "Tombras Reg": "REG 1",
    "Coverage Map": "https://radio-locator.com/pats/KLOO_FM_LU.gif",
    "BUY SUMMARY FOLDER": "https://drive.google.com/drive/u/0/folders/1nMkE1tn9_cG4msZr6eidoX5_wMJU52Vc"
  },
  {
    "Name": "KLOQ 98.7FM",
    "Latitude": 37.2781,
    "Longitude": -120.6275,
    "Radius": 40,
    "Type": "Station",
    "Info": "<b>Genre:</b> Reg Mex • <br><b>Station Rank:</b>  #2 • <br><b>Buy Region:</b> REG 3<br>",
    "Tombras Reg": "REG 3",
    "Coverage Map": "https://radio-locator.com/pats/KLOQ_FM_LU.gif",
    "BUY SUMMARY FOLDER": "https://drive.google.com/drive/u/0/folders/1rl0md7_m5fjLpMnp7cdYZ-H4GBu1Sai_"
  },
  {
    "Name": "KLQQ 104.9FM",
    "Latitude": 44.6222,
    "Longitude": -107.1164,
    "Radius": 40,
    "Type": "Station",
    "Info": "<b>Genre:</b> Top 40 • <br><b>Station Rank:</b>  #2 Sheridan County WY • <br><b>Buy Region:</b> REG 4<br>",
    "Tombras Reg": "REG 4",
    "Coverage Map": "https://radio-locator.com/pats/KLQQ_FM_LU.gif",
    "BUY SUMMARY FOLDER": "https://drive.google.com/drive/u/0/folders/1U_VBuZcO14Syvs-xZp3S_YXSRq8B8LyW"
  },
  {
    "Name": "KLRR 101.7FM",
    "Latitude": 44.0582,
    "Longitude": -121.3153,
    "Radius": 40,
    "Type": "Station",
    "Info": "<b>Genre:</b> Adult Alt. • <br><b>Station Rank:</b>  #6t Deschutes County • <br><b>Buy Region:</b> REG 1<br>",
    "Tombras Reg": "REG 1",
    "Coverage Map": "https://radio-locator.com/pats/KLRR_FM_LU.gif",
    "BUY SUMMARY FOLDER": "https://drive.google.com/drive/u/0/folders/1nMkE1tn9_cG4msZr6eidoX5_wMJU52Vc"
  },
  {
    "Name": "KLTA 98.7FM",
    "Latitude": 46.7597,
    "Longitude": -96.6078,
    "Radius": 40,
    "Type": "Station",
    "Info": "<b>Genre:</b> Hot AC • <br><b>Station Rank:</b>  #6T • <br><b>Buy Region:</b> REG 5<br>",
    "Tombras Reg": "REG 5",
    "Coverage Map": "https://radio-locator.com/pats/KLTA_FM_LU.gif",
    "BUY SUMMARY FOLDER": "https://drive.google.com/drive/u/0/folders/1NulZObGfMQxt4V-N1ynOpSehlQxg8yWb"
  },
  {
    "Name": "KLTH 106.7FM",
    "Latitude": 45.5231,
    "Longitude": -122.6765,
    "Radius": 40,
    "Type": "Station",
    "Info": "<b>Genre:</b> Cl Hits • <br><b>Station Rank:</b>  #1t • <br><b>Buy Region:</b> REG 1<br>",
    "Tombras Reg": "REG 1",
    "Coverage Map": "https://radio-locator.com/pats/KLTH_FM_LU.gif",
    "BUY SUMMARY FOLDER": "https://drive.google.com/drive/u/0/folders/1nMkE1tn9_cG4msZr6eidoX5_wMJU52Vc"
  },
  {
    "Name": "KLYY 97.5FM",
    "Latitude": 34.2344,
    "Longitude": -117.1408,
    "Radius": 40,
    "Type": "Station",
    "Info": "<b>Genre:</b> Spanish Adult Hits • <br><b>Station Rank:</b>  #1 • <br><b>Buy Region:</b> REG 3<br>",
    "Tombras Reg": "REG 3",
    "Coverage Map": "https://radio-locator.com/pats/KLYY_FM_LU.gif",
    "BUY SUMMARY FOLDER": "https://drive.google.com/drive/u/0/folders/1rl0md7_m5fjLpMnp7cdYZ-H4GBu1Sai_"
  },
  {
    "Name": "KLZZ 103.7FM",
    "Latitude": 45.5006,
    "Longitude": -94.2422,
    "Radius": 40,
    "Type": "Station",
    "Info": "<b>Genre:</b> Classic Rock • <br><b>Station Rank:</b>  #2T • <br><b>Buy Region:</b> REG 5<br>",
    "Tombras Reg": "REG 5",
    "Coverage Map": "https://radio-locator.com/pats/KLZZ_FM_LU.gif",
    "BUY SUMMARY FOLDER": "https://drive.google.com/drive/u/0/folders/1NulZObGfMQxt4V-N1ynOpSehlQxg8yWb"
  },
  {
    "Name": "KMGE 94.5FM",
    "Latitude": 44.0521,
    "Longitude": -123.0868,
    "Radius": 40,
    "Type": "Station",
    "Info": "<b>Genre:</b> AC • <br><b>Station Rank:</b>  #4t • <br><b>Buy Region:</b> REG 1<br>",
    "Tombras Reg": "REG 1",
    "Coverage Map": "https://radio-locator.com/pats/KMGE_FM_LU.gif",
    "BUY SUMMARY FOLDER": "https://drive.google.com/drive/u/0/folders/1nMkE1tn9_cG4msZr6eidoX5_wMJU52Vc"
  },
  {
    "Name": "KMGI 102.5FM",
    "Latitude": 42.866,
    "Longitude": -112.5136,
    "Radius": 40,
    "Type": "Station",
    "Info": "<b>Genre:</b> Classic Rock • <br><b>Station Rank:</b>  #3 Pocatello Bannock County • <br><b>Buy Region:</b> REG 4<br>",
    "Tombras Reg": "REG 4",
    "Coverage Map": "https://radio-locator.com/pats/KMGI_FM_LU.gif",
    "BUY SUMMARY FOLDER": "https://drive.google.com/drive/u/0/folders/1U_VBuZcO14Syvs-xZp3S_YXSRq8B8LyW"
  },
  {
    "Name": "KMGV 97.9FM",
    "Latitude": 37.0747,
    "Longitude": -119.432,
    "Radius": 40,
    "Type": "Station",
    "Info": "<b>Genre:</b> Oldies • <br><b>Station Rank:</b>  #7 • <br><b>Buy Region:</b> REG 3<br>",
    "Tombras Reg": "REG 3",
    "Coverage Map": "https://radio-locator.com/pats/KMGV_FM_LU.gif",
    "BUY SUMMARY FOLDER": "https://drive.google.com/drive/u/0/folders/1rl0md7_m5fjLpMnp7cdYZ-H4GBu1Sai_"
  },
  {
    "Name": "KMHS 1420AM & 105.1FM",
    "Latitude": 43.3665,
    "Longitude": -124.2179,
    "Radius": 75,
    "Type": "Station",
    "Info": "<b>Genre:</b> Country HS Sports • <br><b>Station Rank:</b> Rank TBD • <br><b>Buy Region:</b> REG 1<br>",
    "Tombras Reg": "REG 1",
    "Coverage Map": "https://radio-locator.com/pats/KMHS_FM_LU.gif",
    "BUY SUMMARY FOLDER": "https://drive.google.com/drive/u/0/folders/1nMkE1tn9_cG4msZr6eidoX5_wMJU52Vc"
  },
  {
    "Name": "KMIT 105.9FM",
    "Latitude": 43.7378,
    "Longitude": "‑98.2444",
    "Radius": 40,
    "Type": "Station",
    "Info": "<b>Genre:</b> Country • <br><b>Station Rank:</b>  #1 Davison County • <br><b>Buy Region:</b> REG 5<br>",
    "Tombras Reg": "REG 5",
    "Coverage Map": "https://radio-locator.com/pats/KMIT_FM_LU.gif",
    "BUY SUMMARY FOLDER": "https://drive.google.com/drive/u/0/folders/1NulZObGfMQxt4V-N1ynOpSehlQxg8yWb"
  },
  {
    "Name": "KMIX 100.9FM",
    "Latitude": 37.6247,
    "Longitude": -121.4003,
    "Radius": 40,
    "Type": "Station",
    "Info": "<b>Genre:</b> Reg Mex • <br><b>Station Rank:</b>  #1 • <br><b>Buy Region:</b> REG 3<br>",
    "Tombras Reg": "REG 3",
    "Coverage Map": "https://radio-locator.com/pats/KMIX_FM_LU.gif",
    "BUY SUMMARY FOLDER": "https://drive.google.com/drive/u/0/folders/1rl0md7_m5fjLpMnp7cdYZ-H4GBu1Sai_"
  },
  {
    "Name": "KMNA 98.7FM",
    "Latitude": 46.225,
    "Longitude": -119.1,
    "Radius": 40,
    "Type": "Station",
    "Info": "<b>Genre:</b> Mexican Regional • <br><b>Station Rank:</b> Rank TBD • <br><b>Buy Region:</b> REG 2<br>",
    "Tombras Reg": "REG 2",
    "Coverage Map": "https://radio-locator.com/pats/KMNA_FM_LU.gif",
    "BUY SUMMARY FOLDER": "https://drive.google.com/drive/u/0/folders/1rhIm5d2x3MxVJrVzlcuE23LBz3oJJYqY"
  },
  {
    "Name": "KMOK 106.9FM",
    "Latitude": 46.4592,
    "Longitude": -117.0394,
    "Radius": 40,
    "Type": "Station",
    "Info": "<b>Genre:</b> Country • <br><b>Station Rank:</b>  #2 Nez Perce County • <br><b>Buy Region:</b> REG 2<br>",
    "Tombras Reg": "REG 2",
    "Coverage Map": "https://radio-locator.com/pats/KMOK_FM_LU.gif",
    "BUY SUMMARY FOLDER": "https://drive.google.com/drive/u/0/folders/1rhIm5d2x3MxVJrVzlcuE23LBz3oJJYqY"
  },
  {
    "Name": "KMON 94.5FM",
    "Latitude": 47.5386,
    "Longitude": -111.2614,
    "Radius": 40,
    "Type": "Station",
    "Info": "<b>Genre:</b> Country • <br><b>Station Rank:</b>  #1 • <br><b>Buy Region:</b> REG 2<br>",
    "Tombras Reg": "REG 2",
    "Coverage Map": "https://radio-locator.com/pats/KMON_FM_LU.gif",
    "BUY SUMMARY FOLDER": "https://drive.google.com/drive/u/0/folders/1rhIm5d2x3MxVJrVzlcuE23LBz3oJJYqY"
  },
  {
    "Name": "KMQA 100.5FM",
    "Latitude": 35.9408,
    "Longitude": -118.8849,
    "Radius": 40,
    "Type": "Station",
    "Info": "<b>Genre:</b> Mex Reg • <br><b>Station Rank:</b>  #1 • <br><b>Buy Region:</b> REG 3<br>",
    "Tombras Reg": "REG 3",
    "Coverage Map": "https://radio-locator.com/pats/KMQA_FM_LU.gif",
    "BUY SUMMARY FOLDER": "https://drive.google.com/drive/u/0/folders/1rl0md7_m5fjLpMnp7cdYZ-H4GBu1Sai_"
  },
  {
    "Name": "KMTK 99.7FM",
    "Latitude": 44.0582,
    "Longitude": -121.3153,
    "Radius": 40,
    "Type": "Station",
    "Info": "<b>Genre:</b> Country • <br><b>Station Rank:</b>  #5t Deschutes County • <br><b>Buy Region:</b> REG 1<br>",
    "Tombras Reg": "REG 1",
    "Coverage Map": "https://radio-locator.com/pats/KMTK_FM_LU.gif",
    "BUY SUMMARY FOLDER": "https://drive.google.com/drive/u/0/folders/1nMkE1tn9_cG4msZr6eidoX5_wMJU52Vc"
  },
  {
    "Name": "KMYX 92.5FM",
    "Latitude": 35.1914,
    "Longitude": -118.7054,
    "Radius": 40,
    "Type": "Station",
    "Info": "<b>Genre:</b> Mex Reg • <br><b>Station Rank:</b>  #3 • <br><b>Buy Region:</b> REG 3<br>",
    "Tombras Reg": "REG 3",
    "Coverage Map": "https://radio-locator.com/pats/KMYX_FM_LU.gif",
    "BUY SUMMARY FOLDER": "https://drive.google.com/drive/u/0/folders/1rl0md7_m5fjLpMnp7cdYZ-H4GBu1Sai_"
  },
  {
    "Name": "KNBL 1260AM",
    "Latitude": 43.5208,
    "Longitude": "‑111.9925",
    "Radius": 75,
    "Type": "Station",
    "Info": "<b>Genre:</b> Classic Hits • <br><b>Station Rank:</b>  #1 Pocatello Bannock County • <br><b>Buy Region:</b> REG 4<br>",
    "Tombras Reg": "REG 4",
    "Coverage Map": "https://radio-locator.com/pats/KNBL_AM_LD.gif",
    "BUY SUMMARY FOLDER": "https://drive.google.com/drive/u/0/folders/1U_VBuZcO14Syvs-xZp3S_YXSRq8B8LyW"
  },
  {
    "Name": "KNBZ 97.7FM",
    "Latitude": 45.2083,
    "Longitude": "‑98.6725",
    "Radius": 40,
    "Type": "Station",
    "Info": "<b>Genre:</b> Adult Contemporary • <br><b>Station Rank:</b>  #1 • <br><b>Buy Region:</b> REG 5<br>",
    "Tombras Reg": "REG 5",
    "Coverage Map": "https://radio-locator.com/pats/KNBZ_FM_LU.gif",
    "BUY SUMMARY FOLDER": "https://drive.google.com/drive/u/0/folders/1NulZObGfMQxt4V-N1ynOpSehlQxg8yWb"
  },
  {
    "Name": "KNCI 105.1FM",
    "Latitude": 38.6419,
    "Longitude": -121.0914,
    "Radius": 40,
    "Type": "Station",
    "Info": "<b>Genre:</b> Country • <br><b>Station Rank:</b>  #4T • <br><b>Buy Region:</b> REG 3<br>",
    "Tombras Reg": "REG 3",
    "Coverage Map": "https://radio-locator.com/pats/KNCI_FM_LU.gif",
    "BUY SUMMARY FOLDER": "https://drive.google.com/drive/u/0/folders/1rl0md7_m5fjLpMnp7cdYZ-H4GBu1Sai_"
  },
  {
    "Name": "KNCQ 97.3FM",
    "Latitude": 40.5865,
    "Longitude": -122.3917,
    "Radius": 40,
    "Type": "Station",
    "Info": "<b>Genre:</b> Country • <br><b>Station Rank:</b>  #1 • <br><b>Buy Region:</b> REG 1<br>",
    "Tombras Reg": "REG 1",
    "Coverage Map": "https://radio-locator.com/pats/KNCQ_FM_LU.gif",
    "BUY SUMMARY FOLDER": "https://drive.google.com/drive/u/0/folders/1nMkE1tn9_cG4msZr6eidoX5_wMJU52Vc"
  },
  {
    "Name": "KNDD 107.7FM",
    "Latitude": 47.5036,
    "Longitude": -121.9758,
    "Radius": 40,
    "Type": "Station",
    "Info": "<b>Genre:</b> Modern Rock • <br><b>Station Rank:</b>  #11T • <br><b>Buy Region:</b> REG 2<br>",
    "Tombras Reg": "REG 2",
    "Coverage Map": "https://radio-locator.com/pats/KNDD_FM_LU.gif",
    "BUY SUMMARY FOLDER": "https://drive.google.com/drive/u/0/folders/1rhIm5d2x3MxVJrVzlcuE23LBz3oJJYqY"
  },
  {
    "Name": "KNOZ 97.7FM",
    "Latitude": 39.0667,
    "Longitude": "‑108.7464",
    "Radius": 40,
    "Type": "Station",
    "Info": "<b>Genre:</b> Adult Hits • <br><b>Station Rank:</b>  #2 Mesa County • <br><b>Buy Region:</b> REG 4<br>",
    "Tombras Reg": "REG 4",
    "Coverage Map": "https://radio-locator.com/pats/KNOZ_FM_LU.gif",
    "BUY SUMMARY FOLDER": "https://drive.google.com/drive/u/0/folders/1U_VBuZcO14Syvs-xZp3S_YXSRq8B8LyW"
  },
  {
    "Name": "KNPQ 107.3FM",
    "Latitude": 41.154,
    "Longitude": "‑100.7733",
    "Radius": 40,
    "Type": "Station",
    "Info": "<b>Genre:</b> Classic Country • <br><b>Station Rank:</b>  #3T Lincoln County • <br><b>Buy Region:</b> REG 5<br>",
    "Tombras Reg": "REG 5",
    "Coverage Map": "https://radio-locator.com/pats/KNPQ_FM_LU.gif",
    "BUY SUMMARY FOLDER": "https://drive.google.com/drive/u/0/folders/1NulZObGfMQxt4V-N1ynOpSehlQxg8yWb"
  },
  {
    "Name": "KNRK 94.7FM",
    "Latitude": 45.5231,
    "Longitude": -122.6765,
    "Radius": 40,
    "Type": "Station",
    "Info": "<b>Genre:</b> Alternative • <br><b>Station Rank:</b>  #13t • <br><b>Buy Region:</b> REG 1<br>",
    "Tombras Reg": "REG 1",
    "Coverage Map": "https://radio-locator.com/pats/KNRK_FM_LU.gif",
    "BUY SUMMARY FOLDER": "https://drive.google.com/drive/u/0/folders/1nMkE1tn9_cG4msZr6eidoX5_wMJU52Vc"
  },
  {
    "Name": "KNRQ 103.7FM",
    "Latitude": 44.0521,
    "Longitude": -123.0868,
    "Radius": 40,
    "Type": "Station",
    "Info": "<b>Genre:</b> Alt • <br><b>Station Rank:</b>  #8 • <br><b>Buy Region:</b> REG 1<br>",
    "Tombras Reg": "REG 1",
    "Coverage Map": "https://radio-locator.com/pats/KNRQ_FM_LU.gif",
    "BUY SUMMARY FOLDER": "https://drive.google.com/drive/u/0/folders/1nMkE1tn9_cG4msZr6eidoX5_wMJU52Vc"
  },
  {
    "Name": "KNYN 99.1FM",
    "Latitude": 41.35278,
    "Longitude": "–110.90722",
    "Radius": 40,
    "Type": "Station",
    "Info": "<b>Genre:</b> Country • <br><b>Station Rank:</b>  #6 Uinta County WY • <br><b>Buy Region:</b> REG 4<br>",
    "Tombras Reg": "REG 4",
    "Coverage Map": "https://radio-locator.com/pats/KNYN_FM_LU.gif",
    "BUY SUMMARY FOLDER": "https://drive.google.com/drive/u/0/folders/1U_VBuZcO14Syvs-xZp3S_YXSRq8B8LyW"
  },
  {
    "Name": "KODJ 94.1FM",
    "Latitude": 40.59639,
    "Longitude": "–112.02056",
    "Radius": 40,
    "Type": "Station",
    "Info": "<b>Genre:</b> CH • <br><b>Station Rank:</b>  #8 Tie • <br><b>Buy Region:</b> REG 4<br>",
    "Tombras Reg": "REG 4",
    "Coverage Map": "https://radio-locator.com/pats/KODJ_FM_LU.gif",
    "BUY SUMMARY FOLDER": "https://drive.google.com/drive/u/0/folders/1U_VBuZcO14Syvs-xZp3S_YXSRq8B8LyW"
  },
  {
    "Name": "KODS 103.7FM",
    "Latitude": 39.3133,
    "Longitude": -119.8842,
    "Radius": 40,
    "Type": "Station",
    "Info": "<b>Genre:</b> Classic Hits • <br><b>Station Rank:</b>  #3 Tie • <br><b>Buy Region:</b> REG 3<br>",
    "Tombras Reg": "REG 3",
    "Coverage Map": "https://radio-locator.com/pats/KODS_FM_LU.gif",
    "BUY SUMMARY FOLDER": "https://drive.google.com/drive/u/0/folders/1rl0md7_m5fjLpMnp7cdYZ-H4GBu1Sai_"
  },
  {
    "Name": "KODY 1240AM",
    "Latitude": 41.83333,
    "Longitude": "–100.63333",
    "Radius": 75,
    "Type": "Station",
    "Info": "<b>Genre:</b> All Talk • <br><b>Station Rank:</b>  #1 Lincoln County • <br><b>Buy Region:</b> REG 5<br>",
    "Tombras Reg": "REG 5",
    "Coverage Map": "https://radio-locator.com/pats/KODY_AM_LD.gif",
    "BUY SUMMARY FOLDER": "https://drive.google.com/drive/u/0/folders/1NulZObGfMQxt4V-N1ynOpSehlQxg8yWb"
  },
  {
    "Name": "KOJM 610AM & 98.3FM",
    "Latitude": 48.58,
    "Longitude": -109.6492,
    "Radius": 75,
    "Type": "Station",
    "Info": "<b>Genre:</b> Classic Hits • <br><b>Station Rank:</b>  #2 Hill County • <br><b>Buy Region:</b> REG 2<br>",
    "Tombras Reg": "REG 2",
    "Coverage Map": "https://radio-locator.com/pats/KOJM_AM_LD.gif",
    "BUY SUMMARY FOLDER": "https://drive.google.com/drive/u/0/folders/1rhIm5d2x3MxVJrVzlcuE23LBz3oJJYqY"
  },
  {
    "Name": "KOLA 99.9FM",
    "Latitude": 33.9664,
    "Longitude": -117.2886,
    "Radius": 40,
    "Type": "Station",
    "Info": "<b>Genre:</b> Classic Hits • <br><b>Station Rank:</b>  #1 • <br><b>Buy Region:</b> REG 3<br>",
    "Tombras Reg": "REG 3",
    "Coverage Map": "https://radio-locator.com/pats/KOLA_FM_LU.gif",
    "BUY SUMMARY FOLDER": "https://drive.google.com/drive/u/0/folders/1rl0md7_m5fjLpMnp7cdYZ-H4GBu1Sai_"
  },
  {
    "Name": "KOLC 97.3FM",
    "Latitude": 39.2572,
    "Longitude": -119.7111,
    "Radius": 40,
    "Type": "Station",
    "Info": "<b>Genre:</b> Country • <br><b>Station Rank:</b>  #6 • <br><b>Buy Region:</b> REG 3<br>",
    "Tombras Reg": "REG 3",
    "Coverage Map": "https://radio-locator.com/pats/KOLC_FM_LU.gif",
    "BUY SUMMARY FOLDER": "https://drive.google.com/drive/u/0/folders/1rl0md7_m5fjLpMnp7cdYZ-H4GBu1Sai_"
  },
  {
    "Name": "KOLT 100.7FM",
    "Latitude": 41.04861,
    "Longitude": "–104.89167",
    "Radius": 40,
    "Type": "Station",
    "Info": "<b>Genre:</b> Country • <br><b>Station Rank:</b>  #1 • <br><b>Buy Region:</b> REG 4<br>",
    "Tombras Reg": "REG 4",
    "Coverage Map": "https://radio-locator.com/pats/KOLT_FM_LU.gif",
    "BUY SUMMARY FOLDER": "https://drive.google.com/drive/u/0/folders/1U_VBuZcO14Syvs-xZp3S_YXSRq8B8LyW"
  },
  {
    "Name": "KOLZ 102.9FM",
    "Latitude": 36.81444,
    "Longitude": "–107.89278",
    "Radius": 40,
    "Type": "Station",
    "Info": "<b>Genre:</b> CHR • <br><b>Station Rank:</b>  #1 • <br><b>Buy Region:</b> REG 5<br>",
    "Tombras Reg": "REG 5",
    "Coverage Map": "https://radio-locator.com/pats/KOLZ_FM_LU.gif",
    "BUY SUMMARY FOLDER": "https://drive.google.com/drive/u/0/folders/1NulZObGfMQxt4V-N1ynOpSehlQxg8yWb"
  },
  {
    "Name": "KONA 610AM",
    "Latitude": 46.1739,
    "Longitude": -119.0689,
    "Radius": 75,
    "Type": "Station",
    "Info": "<b>Genre:</b> News/Talk • <br><b>Station Rank:</b>  #2T • <br><b>Buy Region:</b> REG 2<br>",
    "Tombras Reg": "REG 2",
    "Coverage Map": "https://radio-locator.com/pats/KONA_AM_LD.gif",
    "BUY SUMMARY FOLDER": "https://drive.google.com/drive/u/0/folders/1rhIm5d2x3MxVJrVzlcuE23LBz3oJJYqY"
  },
  {
    "Name": "KOND 107.5FM",
    "Latitude": 36.6367,
    "Longitude": -118.9436,
    "Radius": 40,
    "Type": "Station",
    "Info": "<b>Genre:</b> Reg Mex • <br><b>Station Rank:</b>  #6t • <br><b>Buy Region:</b> REG 3<br>",
    "Tombras Reg": "REG 3",
    "Coverage Map": "https://radio-locator.com/pats/KOND_FM_LU.gif",
    "BUY SUMMARY FOLDER": "https://drive.google.com/drive/u/0/folders/1rl0md7_m5fjLpMnp7cdYZ-H4GBu1Sai_"
  },
  {
    "Name": "KOPR 94.1FM",
    "Latitude": 46.0064,
    "Longitude": -112.4419,
    "Radius": 40,
    "Type": "Station",
    "Info": "<b>Genre:</b> Adult Hits • <br><b>Station Rank:</b>  #1 Silver Bow County • <br><b>Buy Region:</b> REG 2<br>",
    "Tombras Reg": "REG 2",
    "Coverage Map": "https://radio-locator.com/pats/KOPR_FM_LU.gif",
    "BUY SUMMARY FOLDER": "https://drive.google.com/drive/u/0/folders/1rhIm5d2x3MxVJrVzlcuE23LBz3oJJYqY"
  },
  {
    "Name": "KORD 102.7FM",
    "Latitude": 46.0912,
    "Longitude": -119.1893,
    "Radius": 40,
    "Type": "Station",
    "Info": "<b>Genre:</b> Country • <br><b>Station Rank:</b>  #1 • <br><b>Buy Region:</b> REG 2<br>",
    "Tombras Reg": "REG 2",
    "Coverage Map": "https://radio-locator.com/pats/KORD_FM_LU.gif",
    "BUY SUMMARY FOLDER": "https://drive.google.com/drive/u/0/folders/1rhIm5d2x3MxVJrVzlcuE23LBz3oJJYqY"
  },
  {
    "Name": "KOSI 101.1FM",
    "Latitude": 39.67333,
    "Longitude": -105.21806,
    "Radius": 40,
    "Type": "Station",
    "Info": "<b>Genre:</b> Adult Contemporary • <br><b>Station Rank:</b>  #3 Tied • <br><b>Buy Region:</b> REG 4<br>",
    "Tombras Reg": "REG 4",
    "Coverage Map": "https://radio-locator.com/pats/KOSI_FM_LU.gif",
    "BUY SUMMARY FOLDER": "https://drive.google.com/drive/u/0/folders/1U_VBuZcO14Syvs-xZp3S_YXSRq8B8LyW"
  },
  {
    "Name": "KOWB 1290AM",
    "Latitude": 41.28333,
    "Longitude": -105.58139,
    "Radius": 75,
    "Type": "Station",
    "Info": "<b>Genre:</b> Newstalk/Sports • <br><b>Station Rank:</b>  #1 Albany County WY • <br><b>Buy Region:</b> REG 4<br>",
    "Tombras Reg": "REG 4",
    "Coverage Map": "https://radio-locator.com/pats/KOWB_AM_LD.gif",
    "BUY SUMMARY FOLDER": "https://drive.google.com/drive/u/0/folders/1U_VBuZcO14Syvs-xZp3S_YXSRq8B8LyW"
  },
  {
    "Name": "KOZE 96.5FM",
    "Latitude": 46.3887,
    "Longitude": -117.0342,
    "Radius": 40,
    "Type": "Station",
    "Info": "<b>Genre:</b> AOR • <br><b>Station Rank:</b>  #1 Nez Perce County • <br><b>Buy Region:</b> REG 2<br>",
    "Tombras Reg": "REG 2",
    "Coverage Map": "https://radio-locator.com/pats/KOZE_FM_LU.gif",
    "BUY SUMMARY FOLDER": "https://drive.google.com/drive/u/0/folders/1rhIm5d2x3MxVJrVzlcuE23LBz3oJJYqY"
  },
  {
    "Name": "KOZY 1320AM",
    "Latitude": 47.17278,
    "Longitude": -93.45306,
    "Radius": 75,
    "Type": "Station",
    "Info": "<b>Genre:</b> Oldies • <br><b>Station Rank:</b>  #2 • <br><b>Buy Region:</b> REG 5<br>",
    "Tombras Reg": "REG 5",
    "Coverage Map": "https://radio-locator.com/pats/KOZY_AM_LD.gif",
    "BUY SUMMARY FOLDER": "https://drive.google.com/drive/u/0/folders/1NulZObGfMQxt4V-N1ynOpSehlQxg8yWb"
  },
  {
    "Name": "KOZZ 105.7FM",
    "Latitude": 39.3133,
    "Longitude": -119.8842,
    "Radius": 40,
    "Type": "Station",
    "Info": "<b>Genre:</b> Classic Rock • <br><b>Station Rank:</b>  #3 Tie • <br><b>Buy Region:</b> REG 3<br>",
    "Tombras Reg": "REG 3",
    "Coverage Map": "https://radio-locator.com/pats/KOZZ_FM_LU.gif",
    "BUY SUMMARY FOLDER": "https://drive.google.com/drive/u/0/folders/1rl0md7_m5fjLpMnp7cdYZ-H4GBu1Sai_"
  },
  {
    "Name": "KPFX 107.9FM",
    "Latitude": 46.75972,
    "Longitude": -96.60778,
    "Radius": 40,
    "Type": "Station",
    "Info": "<b>Genre:</b> Classic Rock • <br><b>Station Rank:</b>  #2T • <br><b>Buy Region:</b> REG 5<br>",
    "Tombras Reg": "REG 5",
    "Coverage Map": "https://radio-locator.com/pats/KPFX_FM_LU.gif",
    "BUY SUMMARY FOLDER": "https://drive.google.com/drive/u/0/folders/1NulZObGfMQxt4V-N1ynOpSehlQxg8yWb"
  },
  {
    "Name": "KPHR 106.3FM",
    "Latitude": 45.10417,
    "Longitude": -96.98611,
    "Radius": 40,
    "Type": "Station",
    "Info": "<b>Genre:</b> Classic Rock • <br><b>Station Rank:</b>  #3 Codington County • <br><b>Buy Region:</b> REG 5<br>",
    "Tombras Reg": "REG 5",
    "Coverage Map": "https://radio-locator.com/pats/KPHR_FM_LU.gif",
    "BUY SUMMARY FOLDER": "https://drive.google.com/drive/u/0/folders/1NulZObGfMQxt4V-N1ynOpSehlQxg8yWb"
  },
  {
    "Name": "KPLD 105.1FM",
    "Latitude": 37.6394,
    "Longitude": "–113.0333",
    "Radius": 40,
    "Type": "Station",
    "Info": "<b>Genre:</b> Hot AC • <br><b>Station Rank:</b>  #1 Iron County UT • <br><b>Buy Region:</b> REG 4<br>",
    "Tombras Reg": "REG 4",
    "Coverage Map": "https://radio-locator.com/pats/KPLD_FM_LU.gif",
    "BUY SUMMARY FOLDER": "https://drive.google.com/drive/u/0/folders/1U_VBuZcO14Syvs-xZp3S_YXSRq8B8LyW"
  },
  {
    "Name": "KPLN 106.7FM",
    "Latitude": 45.7833,
    "Longitude": -108.5,
    "Radius": 40,
    "Type": "Station",
    "Info": "<b>Genre:</b> Hot AC • <br><b>Station Rank:</b>  #2 • <br><b>Buy Region:</b> REG 2<br>",
    "Tombras Reg": "REG 2",
    "Coverage Map": "https://radio-locator.com/pats/KPLN_FM_LU.gif",
    "BUY SUMMARY FOLDER": "https://drive.google.com/drive/u/0/folders/1rhIm5d2x3MxVJrVzlcuE23LBz3oJJYqY"
  },
  {
    "Name": "KPLZ 101.5FM",
    "Latitude": 47.53,
    "Longitude": -122.1,
    "Radius": 40,
    "Type": "Station",
    "Info": "<b>Genre:</b> Country • <br><b>Station Rank:</b>  #16 • <br><b>Buy Region:</b> REG 2<br>",
    "Tombras Reg": "REG 2",
    "Coverage Map": "https://radio-locator.com/pats/KPLZ_FM_LU.gif",
    "BUY SUMMARY FOLDER": "https://drive.google.com/drive/u/0/folders/1rhIm5d2x3MxVJrVzlcuE23LBz3oJJYqY"
  },
  {
    "Name": "KPQ  102.1FM",
    "Latitude": 47.2742,
    "Longitude": -120.4261,
    "Radius": 40,
    "Type": "Station",
    "Info": "<b>Genre:</b> Classic Rock • <br><b>Station Rank:</b>  #2 • <br><b>Buy Region:</b> REG 2<br>",
    "Tombras Reg": "REG 2",
    "Coverage Map": "https://radio-locator.com/pats/KPQ_FM_LU.gif",
    "BUY SUMMARY FOLDER": "https://drive.google.com/drive/u/0/folders/1rhIm5d2x3MxVJrVzlcuE23LBz3oJJYqY"
  },
  {
    "Name": "KPQX 92.5FM",
    "Latitude": 48.1758,
    "Longitude": -109.6835,
    "Radius": 40,
    "Type": "Station",
    "Info": "<b>Genre:</b> Country • <br><b>Station Rank:</b>  #1 • <br><b>Buy Region:</b> REG 2<br>",
    "Tombras Reg": "REG 2",
    "Coverage Map": "https://radio-locator.com/pats/KPQX_FM_LU.gif",
    "BUY SUMMARY FOLDER": "https://drive.google.com/drive/u/0/folders/1rhIm5d2x3MxVJrVzlcuE23LBz3oJJYqY"
  },
  {
    "Name": "KPRB 106.3FM",
    "Latitude": 40.217203,
    "Longitude": -103.6992189,
    "Radius": 40,
    "Type": "Station",
    "Info": "<b>Genre:</b> Adult Contemporary • <br><b>Station Rank:</b> Rank TBD • <br><b>Buy Region:</b> REG 4<br>",
    "Tombras Reg": "REG 4",
    "Coverage Map": "https://radio-locator.com/pats/KPRB_FM_LU.gif",
    "BUY SUMMARY FOLDER": "https://drive.google.com/drive/u/0/folders/1U_VBuZcO14Syvs-xZp3S_YXSRq8B8LyW"
  },
  {
    "Name": "KPSL 96.5FM",
    "Latitude": 35.4853,
    "Longitude": -118.8892,
    "Radius": 40,
    "Type": "Station",
    "Info": "<b>Genre:</b> Spanish Tropical • <br><b>Station Rank:</b>  #4 DJ La Mamy • <br><b>Buy Region:</b> REG 3<br>",
    "Tombras Reg": "REG 3",
    "Coverage Map": "https://radio-locator.com/pats/KPSL_FM_LU.gif",
    "BUY SUMMARY FOLDER": "https://drive.google.com/drive/u/0/folders/1rl0md7_m5fjLpMnp7cdYZ-H4GBu1Sai_"
  },
  {
    "Name": "KQEO 107.1FM",
    "Latitude": 43.351583,
    "Longitude": -112.0114329,
    "Radius": 40,
    "Type": "Station",
    "Info": "<b>Genre:</b> Classic Hits • <br><b>Station Rank:</b>  #1 Idaho Falls Bonneville County • <br><b>Buy Region:</b> REG 4<br>",
    "Tombras Reg": "REG 4",
    "Coverage Map": "https://radio-locator.com/pats/KQEO_FM_LU.gif",
    "BUY SUMMARY FOLDER": "https://drive.google.com/drive/u/0/folders/1U_VBuZcO14Syvs-xZp3S_YXSRq8B8LyW"
  },
  {
    "Name": "KQHT 96.1FM",
    "Latitude": 47.845253,
    "Longitude": -96.839795,
    "Radius": 40,
    "Type": "Station",
    "Info": "<b>Genre:</b> Classic Hits • <br><b>Station Rank:</b>  #2T • <br><b>Buy Region:</b> REG 5<br>",
    "Tombras Reg": "REG 5",
    "Coverage Map": "https://radio-locator.com/pats/KQHT_FM_LU.gif",
    "BUY SUMMARY FOLDER": "https://drive.google.com/drive/u/0/folders/1NulZObGfMQxt4V-N1ynOpSehlQxg8yWb"
  },
  {
    "Name": "KQIC 102.5FM",
    "Latitude": 45.194407,
    "Longitude": -95.083901,
    "Radius": 40,
    "Type": "Station",
    "Info": "<b>Genre:</b> Hot AC • <br><b>Station Rank:</b>  #1 Kandiyohi County • <br><b>Buy Region:</b> REG 5<br>",
    "Tombras Reg": "REG 5",
    "Coverage Map": "https://radio-locator.com/pats/KQIC_FM_LU.gif",
    "BUY SUMMARY FOLDER": "https://drive.google.com/drive/u/0/folders/1NulZObGfMQxt4V-N1ynOpSehlQxg8yWb"
  },
  {
    "Name": "KQIE 104.7FM",
    "Latitude": 34.0369,
    "Longitude": -116.9694,
    "Radius": 40,
    "Type": "Station",
    "Info": "<b>Genre:</b> Rhythmic Oldies • <br><b>Station Rank:</b>  #13t • <br><b>Buy Region:</b> REG 3<br>",
    "Tombras Reg": "REG 3",
    "Coverage Map": "https://radio-locator.com/pats/KQIE_FM_LU.gif",
    "BUY SUMMARY FOLDER": "https://drive.google.com/drive/u/0/folders/1rl0md7_m5fjLpMnp7cdYZ-H4GBu1Sai_"
  },
  {
    "Name": "KQMT 99.5FM",
    "Latitude": 39.728877,
    "Longitude": -105.236101,
    "Radius": 40,
    "Type": "Station",
    "Info": "<b>Genre:</b> Classic Rock • <br><b>Station Rank:</b>  #8 • <br><b>Buy Region:</b> REG 4<br>",
    "Tombras Reg": "REG 4",
    "Coverage Map": "https://radio-locator.com/pats/KQMT_FM_LU.gif",
    "BUY SUMMARY FOLDER": "https://drive.google.com/drive/u/0/folders/1U_VBuZcO14Syvs-xZp3S_YXSRq8B8LyW"
  },
  {
    "Name": "KQMV 92.5FM",
    "Latitude": 47.5046,
    "Longitude": -121.9688,
    "Radius": 40,
    "Type": "Station",
    "Info": "<b>Genre:</b> CHR • <br><b>Station Rank:</b>  #6T (#1 in AM Drive) • <br><b>Buy Region:</b> REG 2<br>",
    "Tombras Reg": "REG 2",
    "Coverage Map": "https://radio-locator.com/pats/KQMV_FM_LU.gif",
    "BUY SUMMARY FOLDER": "https://drive.google.com/drive/u/0/folders/1rhIm5d2x3MxVJrVzlcuE23LBz3oJJYqY"
  },
  {
    "Name": "KQOD 100.1FM",
    "Latitude": 37.9917,
    "Longitude": -121.2892,
    "Radius": 40,
    "Type": "Station",
    "Info": "<b>Genre:</b> Rhythmic AC • <br><b>Station Rank:</b>  #5 • <br><b>Buy Region:</b> REG 3<br>",
    "Tombras Reg": "REG 3",
    "Coverage Map": "https://radio-locator.com/pats/KQOD_FM_LU.gif",
    "BUY SUMMARY FOLDER": "https://drive.google.com/drive/u/0/folders/1rl0md7_m5fjLpMnp7cdYZ-H4GBu1Sai_"
  },
  {
    "Name": "KQOL 105.3FM",
    "Latitude": 44.2925,
    "Longitude": -105.4361,
    "Radius": 40,
    "Type": "Station",
    "Info": "<b>Genre:</b> Classic Hits • <br><b>Station Rank:</b>  #1 Campbell County WY • <br><b>Buy Region:</b> REG 4<br>",
    "Tombras Reg": "REG 4",
    "Coverage Map": "https://radio-locator.com/pats/KQOL_FM_LU.gif",
    "BUY SUMMARY FOLDER": "https://drive.google.com/drive/u/0/folders/1U_VBuZcO14Syvs-xZp3S_YXSRq8B8LyW"
  },
  {
    "Name": "KQRN 107.3FM",
    "Latitude": 43.7033,
    "Longitude": -97.9976,
    "Radius": 40,
    "Type": "Station",
    "Info": "<b>Genre:</b> Adult Contemporary • <br><b>Station Rank:</b>  #2 • <br><b>Buy Region:</b> REG 5<br>",
    "Tombras Reg": "REG 5",
    "Coverage Map": "https://radio-locator.com/pats/KQRN_FM_LU.gif",
    "BUY SUMMARY FOLDER": "https://drive.google.com/drive/u/0/folders/1NulZObGfMQxt4V-N1ynOpSehlQxg8yWb"
  },
  {
    "Name": "KQSW 96.5FM",
    "Latitude": 41.4317,
    "Longitude": -109.1175,
    "Radius": 40,
    "Type": "Station",
    "Info": "<b>Genre:</b> Country • <br><b>Station Rank:</b>  #4 Sweetwater County WY • <br><b>Buy Region:</b> REG 4<br>",
    "Tombras Reg": "REG 4",
    "Coverage Map": "https://radio-locator.com/pats/KQSW_FM_LU.gif",
    "BUY SUMMARY FOLDER": "https://drive.google.com/drive/u/0/folders/1U_VBuZcO14Syvs-xZp3S_YXSRq8B8LyW"
  },
  {
    "Name": "KQWB 105.1FM",
    "Latitude": 46.9758,
    "Longitude": -96.5839,
    "Radius": 40,
    "Type": "Station",
    "Info": "<b>Genre:</b> Active Rock • <br><b>Station Rank:</b>  #4 • <br><b>Buy Region:</b> REG 5<br>",
    "Tombras Reg": "REG 5",
    "Coverage Map": "https://radio-locator.com/pats/KQWB_FM_LU.gif",
    "BUY SUMMARY FOLDER": "https://drive.google.com/drive/u/0/folders/1NulZObGfMQxt4V-N1ynOpSehlQxg8yWb"
  },
  {
    "Name": "KQXR 100.3FM",
    "Latitude": 43.8253,
    "Longitude": -116.509,
    "Radius": 40,
    "Type": "Station",
    "Info": "<b>Genre:</b> Active Rock • <br><b>Station Rank:</b>  #2 • <br><b>Buy Region:</b> REG 4<br>",
    "Tombras Reg": "REG 4",
    "Coverage Map": "https://radio-locator.com/pats/KQXR_FM_LU.gif",
    "BUY SUMMARY FOLDER": "https://drive.google.com/drive/u/0/folders/1U_VBuZcO14Syvs-xZp3S_YXSRq8B8LyW"
  },
  {
    "Name": "KRAB 106.1FM",
    "Latitude": 35.3592,
    "Longitude": -118.73,
    "Radius": 40,
    "Type": "Station",
    "Info": "<b>Genre:</b> Alternative • <br><b>Station Rank:</b>  #5t • <br><b>Buy Region:</b> REG 3<br>",
    "Tombras Reg": "REG 3",
    "Coverage Map": "https://radio-locator.com/pats/KRAB_FM_LU.gif",
    "BUY SUMMARY FOLDER": "https://drive.google.com/drive/u/0/folders/1rl0md7_m5fjLpMnp7cdYZ-H4GBu1Sai_"
  },
  {
    "Name": "KRCH 101.7FM",
    "Latitude": 44.1164,
    "Longitude": -92.6897,
    "Radius": 40,
    "Type": "Station",
    "Info": "<b>Genre:</b> Classic Rock • <br><b>Station Rank:</b>  #3T Mower County • <br><b>Buy Region:</b> REG 5<br>",
    "Tombras Reg": "REG 5",
    "Coverage Map": "https://radio-locator.com/pats/KRCH_FM_LU.gif",
    "BUY SUMMARY FOLDER": "https://drive.google.com/drive/u/0/folders/1NulZObGfMQxt4V-N1ynOpSehlQxg8yWb"
  },
  {
    "Name": "KRDA 92.1FM",
    "Latitude": 37.1278,
    "Longitude": -119.6786,
    "Radius": 40,
    "Type": "Station",
    "Info": "<b>Genre:</b> Spanish Adult Hits • <br><b>Station Rank:</b>  #2 • <br><b>Buy Region:</b> REG 3<br>",
    "Tombras Reg": "REG 3",
    "Coverage Map": "https://radio-locator.com/pats/KRDA_FM_LU.gif",
    "BUY SUMMARY FOLDER": "https://drive.google.com/drive/u/0/folders/1rl0md7_m5fjLpMnp7cdYZ-H4GBu1Sai_"
  },
  {
    "Name": "KREC 98.1FM",
    "Latitude": 37.5422,
    "Longitude": -113.0681,
    "Radius": 40,
    "Type": "Station",
    "Info": "<b>Genre:</b> AC • <br><b>Station Rank:</b>  #3 Iron County UT • <br><b>Buy Region:</b> REG 4<br>",
    "Tombras Reg": "REG 4",
    "Coverage Map": "https://radio-locator.com/pats/KREC_FM_LU.gif",
    "BUY SUMMARY FOLDER": "https://drive.google.com/drive/u/0/folders/1U_VBuZcO14Syvs-xZp3S_YXSRq8B8LyW"
  },